[
  {
    "name": "만드리곤드레밥",
    "district": "강서구",
    "lat": 35.177387,
    "lng": 128.95245,
    "address": "강서구 공항앞길 85번길 13",
    "description": "곤드레밥에는 일반적으로 건조 곤드레나물이 사용되는데,\n이곳은 생 곤드레나물을 사용하여 돌솥밥을 만든다.\n된장찌개와 함께 열 가지가 넘는 반찬이 제공되는 돌솥곤드레정식이 인기있다\n",
    "phone": "051-941-3669",
    "type": "restaurant"
  },
  {
    "name": "민물가든",
    "district": "강서구",
    "lat": 35.16055,
    "lng": 128.89468,
    "address": "강서구 둔치중앙길5(봉림동) ",
    "description": "30년간 운영해온 생선찜전문점으로, 전통방식인 나무통을 사용하여 조리하는 것이 특징이다. 20가지 이상의 재료로 만든 양념을 사용하는 이 곳은 묵은지 붕어조림과 붕어찜이 대표메뉴이다.\n\n",
    "phone": "051-971-8428",
    "type": "restaurant"
  },
  {
    "name": "가야할매밀면",
    "district": "연제구",
    "lat": 35.185196,
    "lng": 129.07988,
    "address": "부산 연제구 월드컵대로 145번길 32\n",
    "description": "유명한 밀면전문점으로, 밀가루에 옥수수 전분을 섞어, 다른 밀면전문점들보다 더 탄력있는 면이 특징이다. 육수는 돼지뼈와 소뼈에 각종 야채와 여러 한약재를 섞어 만들고, 사이드 메뉴인 만두도 인기 있다.\n",
    "phone": "051-865-8017",
    "type": "restaurant"
  },
  {
    "name": "국제밀면본점",
    "district": "연제구",
    "lat": 35.19689,
    "lng": 129.07785,
    "address": "연제구 중앙대로1235번길 23-6 ",
    "description": "밀면전문점 중에서도 특히 맛으로 소문난 이곳은\n소 사골만을 사용한 육수 등 독창적인 방식의 밀면을 만들고 있다. \n보통 기계로 잘려진 편육이 고명으로 올려지는데, 이곳은 손으로 일일이 얇게 찢은 \n양지머리 고기가 올려지는 것이 특징이다.\n",
    "phone": "051-501-5507",
    "type": "restaurant"
  },
  {
    "name": "할매가야밀면",
    "district": "중구",
    "lat": 35.098934,
    "lng": 129.03122,
    "address": "중구 광복로 56-14",
    "description": "깔끔한 맛의 육수가 인상적인 40년 전통의 밀면 전문점으로, \n식사시간에는 항상 긴 줄이 늘어서 있지만 140석을 갖춘 넓은 매장으로 인해 \n웨이팅 시간은 짧은 편. 항상 청결하게 관리되고 있는 기분 좋은 식당이다.\n",
    "phone": "051-246-3314",
    "type": "restaurant"
  },
  {
    "name": "거인통닭",
    "district": "중구",
    "lat": 35.102345,
    "lng": 129.02612,
    "address": "중구 중구로47번길34",
    "description": "3대에 걸쳐 약 60여 년을 운영 중인 유명한 식당으로, 프라이드치킨 단 하나의 메뉴만을 고수하고 있는 이곳은 가장 맛있는 치킨을 이야기할 때 항상 거론되는 곳이다.\n",
    "phone": "051-246-6079",
    "type": "restaurant"
  },
  {
    "name": "부산꼼장어맛집 성일집",
    "district": "중구",
    "lat": 35.099426,
    "lng": 129.03749,
    "address": "중구 대교로 103",
    "description": "1950년부터 3대에 걸쳐 74년째 운영 중인 곳으로 가장 유명한 곰장어전문점 중 한 곳이다. 싱싱하게 살아있는 국내산 곰장어와 23가지의 한약재를 사용한 특별한 양념을 사용한다.\n",
    "phone": "0507-1345-5890",
    "type": "restaurant"
  },
  {
    "name": "배비장보쌈구서본점",
    "district": "금정구",
    "lat": 35.245174,
    "lng": 129.09143,
    "address": "금정구 금정로 239",
    "description": "30여 년 운영해 온 부산에서 유명한 보쌈 식당 중 하나로, \n보쌈김치와 무채를 매일 직접 담근다.\n반찬으로 나오는 계란찜도 인기 있는 이곳은 손님을 대접하기에도 좋은 장소다.\n",
    "phone": "051-515-2106",
    "type": "restaurant"
  },
  {
    "name": "장수장 꼬리곰탕",
    "district": "북구",
    "lat": 35.19576,
    "lng": 128.99043,
    "address": "북구 사상로 577",
    "description": "1983년에 개업하여 40여 년을 운영해온 곳으로, 김치와 젓갈은 직접 만들어 항아리에서 숙성시킨다.\n뼈와 도가니는 한우, 꼬리는 호주산으로 엄선된 재료를 사용하며 변하지 않는 꾸준한 맛으로\n인기 높은 곳이다.\n",
    "phone": "051-303-7096",
    "type": "restaurant"
  },
  {
    "name": "금수복국 해운대본점",
    "district": "해운대구",
    "lat": 35.16243,
    "lng": 129.1645,
    "address": "해운대구 중동1로 43번길23",
    "description": "복국의 원조라 할 수 있는 50년 전통의 복요리집으로, 신선한 원재료와 정확한 물류 시스템, 모든 장류는 직접 담아 사용하는 것이 맛의 비결이라고 한다.  24시간 영업하는 곳.\n",
    "phone": "051-742-3600",
    "type": "restaurant"
  },
  {
    "name": "다온 한정식",
    "district": "해운대구",
    "lat": 35.158123,
    "lng": 129.14853,
    "address": "부산 해운대구 해운대해변로 154 마리나동원8층",
    "description": "한옥의 전통적인 모티브를 활용한 인테리어가 인상적인 한정식전문점으로, 토속적인 소품 으로 장식된 별실이 마련되어 있어 격식 있는 모임의 장소로도 많이 찾는 곳. 한약재와 제철 음식 재료를 활용해서 만든 한식 요리를 곱게 담아 코스로 내는 한정식이 인기\n\n",
    "phone": "0507-1424-0140",
    "type": "restaurant"
  },
  {
    "name": "할매재첩국집",
    "district": "사상구",
    "lat": 35.193363,
    "lng": 128.98607,
    "address": "사상구 낙동대로1530번길 20-15",
    "description": "낙동강변 재첩요리 먹거리 타운에서 30여 년을 운영하고 있는 재첩국전문점으로, \n비빔그릇에 함께 나온 된장과 재첩을 넣고 \n비빔밥을 만들어 재첩국과 함께 먹는 방법이 인기 있다.\n",
    "phone": "051-301-7069",
    "type": "restaurant"
  },
  {
    "name": "예이제",
    "district": "해운대구",
    "lat": 35.16123,
    "lng": 129.16664,
    "address": " 부산 해운대구 해운대해변로298번길 29 해운대푸르지오시티 2층",
    "description": "해운대 해변인근에 위치한 한정식전문점으로, 가족모임이나 손님 대접 등으로 많이 찾는 곳이다. 주인이 직접 고른 제철 식재료와 지인이 운영하는 농장에서 키운 채소를 사용하는이 곳은 먹는 것이 고민스러울 정도로 예쁜 음식이 특징이다.\n\n",
    "phone": "051-731-1100",
    "type": "restaurant"
  },
  {
    "name": "합천일류돼지국밥",
    "district": "사상구",
    "lat": 35.16191,
    "lng": 128.98045,
    "address": "사상구 광장로 34",
    "description": "맛있는 식당들이 많기로 유명한 사상시외버스터미널 근처에서도 특히 유명한 돼지국밥 전문점으로, \n24시간 운영되는 이곳은, 관광객들이 많이 찾는 곳이기도 하다. \n마늘다대기가 수북하게 올려져 있는 것이 특징이며, 국밥만큼이나 돼지고기 수육도 유명하다.\n",
    "phone": "051-317-2478",
    "type": "restaurant"
  },
  {
    "name": "원조석대추어탕",
    "district": "해운대구",
    "lat": 35.2195,
    "lng": 129.12512,
    "address": "부산 해운대구 반송로 571번길 5",
    "description": "입구를 들어서면 가득 쌓인 장작과 아궁이에 올려 진 커다란 무쇠솥이 눈에 들어온다.\n유명한 추어탕전문점인 이 곳의 추어탕은, 강한 화력으로 오래 끓여 부드럽고 풍부한 맛이 특징으로, 논고동무침과 가오리찜도 인기 있다.\n\n",
    "phone": "051-523-7819",
    "type": "restaurant"
  },
  {
    "name": "할매복국",
    "district": "해운대구",
    "lat": 35.160915,
    "lng": 129.17152,
    "address": "달맞이길62번길 1\n",
    "description": "‘복국촌’으로 알려진 미포 지역의 대표적인 복요리 전문점으로, 부산 향토 음식점 31곳 중하나이다. 복어를 사용한 맑은 탕인 복지리가 대표메뉴이며, 복어죽과 수육, 복불고기와 복어찜 등의 요리도 맛볼 수 있다.\n\n",
    "phone": "051-742-2790\n",
    "type": "restaurant"
  },
  {
    "name": "신창국밥 본점",
    "district": "서구",
    "lat": 35.10093,
    "lng": 129.02254,
    "address": "서구 보수대로 53",
    "description": "1969년에 국제시장 신창동에서 시작하여 신창국밥이라 이름 지어진 식당으로,\n맑은 국물의 돼지국밥이 시작된 곳이다.\n신선한 재료와 전통방식인 토렴을 고수하고, 직접 만드는 이북식 순대도 인기 있다.\n",
    "phone": "051-244-1112",
    "type": "restaurant"
  },
  {
    "name": "평안도족발",
    "district": "해운대구",
    "lat": 35.161945,
    "lng": 129.16637,
    "address": "부산 해운대구 달맞이길 14\n",
    "description": "30년 넘게 한자리에서 운영해온 전통 있는 족발전문점으로, 이 지역 사람들에게 오래 사랑 받아온 곳이다. 오래된 식당답게 족발 특유의 냄새가 없는 깔끔하고 균형 잡힌 족발의 맛이 특징이며, 냉채족발과 마늘족발 등의 메뉴도 인기 있다.\n\n",
    "phone": "051-741-6568",
    "type": "restaurant"
  },
  {
    "name": "한우숯불양곱창",
    "district": "해운대구",
    "lat": 35.165897,
    "lng": 129.17079,
    "address": "부산 해운대구 해운대해변로 385\n",
    "description": "해운대 중동역 인근의 양곱창 전문점인 이 곳은 특히 소의 첫 번째 위인 특양 양념구이가 유명하다. 주문과 동시에 특제양념을 발라, 점원이 구워주는 이 곳의 특양 구이는 무척 부드 러우면서도 살짝 탄력 있는 식감이 특징이다.\n\n",
    "phone": "051-741-8969",
    "type": "restaurant"
  },
  {
    "name": "쌍둥이돼지국밥 본점",
    "district": "남구",
    "lat": 35.13177,
    "lng": 129.0923,
    "address": "남구 유엔평화로 35-1",
    "description": "식사시간에는 길게 줄을 선 모습을 볼 수 있는 유명한 식당으로,\n부산의 수많은 돼지국밥전문점 중에서도 손에 꼽히는 식당 중 한 곳이다.\n항정살 수육으로 유명하다.\n",
    "phone": "051-628-7021",
    "type": "restaurant"
  },
  {
    "name": "베지나랑",
    "district": "수영구",
    "lat": 35.156757,
    "lng": 129.13426,
    "address": "수영구 광안해변로370번길 9-32 노블스카이 9층",
    "description": "매일 준비하는 깨끗한 채수로 맛을 내고 간단한 샐러드부터 일품요리, \n코스요리까지 다양하게 준비하는 비건 식당이다.\n비건 식당 특성 상 외국인 손님들이 많이 찾는다고 한다.\n",
    "phone": "0507-1416-5561",
    "type": "restaurant"
  },
  {
    "name": "석화한정식",
    "district": "동구",
    "lat": 35.13881,
    "lng": 129.06189,
    "address": "부산광역시 동구 조방로 21",
    "description": "차려지는 음식 하나하나가 먹기 아까울 정도로 섬세하게 담겨져 나온다. 격식있는 모임의 장소로도 유명한 고급한정식전문점으로, 버섯탕수와 전복초가 나오는 고향한정식과 관자숙 회와 갈비찜 장어구이가 나오는 어머니한정식이 대표메뉴.\n\n",
    "phone": "0507-1496-5005",
    "type": "restaurant"
  },
  {
    "name": "내당",
    "district": "동래구",
    "lat": 35.219814,
    "lng": 129.08208,
    "address": " 동래구 금강공원로 20번길 23 호텔농심 별관",
    "description": "정원과 연못이 있는 전통가옥의 형식의 고풍스러운 멋을 갖춘 곳으로 전통적인 맛의 한식을 다채롭게 느낄 수 있다. 각종 연회에 어울리는 품위 있는 곳이다\n",
    "phone": "0507-1427-2336",
    "type": "restaurant"
  },
  {
    "name": "봉식당",
    "district": "동래구",
    "lat": 35.221752,
    "lng": 129.08357,
    "address": "부산 동래구 온천장로119번길 26",
    "description": "한식당을 운영했던 어머니와 프렌치셰프인 아들이 함께 운영하는 곳으로 계절재료를 살린코스와 마무리인 보쌈한상이 특징인 곳. 각종 행사장소로도 많이 찾는 곳이다.\n",
    "phone": "051-556-9911",
    "type": "restaurant"
  },
  {
    "name": "60년 전통 할매국밥",
    "district": "동구",
    "lat": 35.141018,
    "lng": 129.05618,
    "address": "동구 중앙대로533번길 4",
    "description": "60년 전통의 돼지국밥 전문점으로 식사 시간에는 30분 이상을 기다려야 하는 유명한 식당이다. \n대부분의 돼지국밥들과는 다른 맑은 국물이 특징이며, 대충 썬 것 같은 돼지 수육은 \n예상외로 부드러운 맛이다. 돼지국물과 고기가 따로 나오는 수육백반이 특히 인기 있다.\n",
    "phone": "051-646-6295",
    "type": "restaurant"
  },
  {
    "name": "함경면옥",
    "district": "동래구",
    "lat": 35.216976,
    "lng": 129.08171,
    "address": "부산광역시 동래구 온천장로 64 1층",
    "description": "30년 장인의 솜씨로 만든 냉면의 맛은 비교할만한 대상이 드물다. 부산에서 가장 유명한 냉면전문점 중 한 곳으로, 계절을 가리지 않고 항상 많은 사람들이 찾아오는 것이 이곳의 변하지 않는 맛을 증명하고 있다\n",
    "phone": "051-556-2020",
    "type": "restaurant"
  },
  {
    "name": "왔다식당",
    "district": "영도구",
    "lat": 35.094036,
    "lng": 129.05635,
    "address": "영도구 하나길 811",
    "description": "일본인 손님들도 자주 찾는 이곳은 30여 년간 운영해온 한우스지요리 전문점으로, \n부드러운 식감의 스지는 반드시 한우만 사용한다고 한다.\n대표메뉴인 된장전골을 먹을 때는 반드시 라면사리를 추가하는 것을 추천한다.\n",
    "phone": "051-412-2676",
    "type": "restaurant"
  },
  {
    "name": "구포촌국수",
    "district": "금정구",
    "lat": 35.266575,
    "lng": 129.08475,
    "address": "부산 금정구 금샘로 490",
    "description": "메뉴는 오직 국수 한 가지 남해안 최고급멸치 4~5종을 섞어 12시간 이상 끓인 육수를 사용 하는 이곳은, 2대에 걸쳐 30여 년을 운영 중인 유명한 국수전문점으로 누구에게든 추천할 수 있는 곳이다.\n",
    "phone": "051-515-1751",
    "type": "restaurant"
  },
  {
    "name": "얼크니손칼국수",
    "district": "기장군",
    "lat": 35.255756,
    "lng": 129.21614,
    "address": "부산 기장군 기장읍 차성로 417번길 22",
    "description": "간단히 준비된 샤브샤브를 먹은 후 직접 면을 넣고 조리해 먹는 칼국수 가격에 비해 푸짐한 재료들이 특징이다. 먼저 샤브샤브를 먹고 그 국물에 칼국수를 만들어 먹고 나면, 점원이 볶음밥을 만들어 준다.\n\n",
    "phone": "051-721-3487",
    "type": "restaurant"
  },
  {
    "name": "탐복",
    "district": "기장군",
    "lat": 35.282757,
    "lng": 129.25768,
    "address": "부산 기장군 일광읍 문오성길 31",
    "description": "예쁜 플레이팅에 담긴 국내산 전복요리, 시그니처인 전복 내장 소스 등 전복요리를 전문으로 한 캐주얼 한식을 선보이는 곳으로 오래된 가옥을 활용한 한국식+캐주얼 인테리어가 돋보인다.\n",
    "phone": "051-727-4213",
    "type": "restaurant"
  },
  {
    "name": "곤국",
    "district": "남구",
    "lat": 35.1477,
    "lng": 129.06758,
    "address": "부산 남구 황령대로74번길 51-1 1층",
    "description": "곰탕전문식당인 이 곳은 오래 끓여 부드러운 고기와 맛이 진한 국물이 특징으로, 밥을 말아서 나오지 않고, 갓 지은 솥밥이 따로 제공된다.\n\n",
    "phone": "0507-1305-6586",
    "type": "restaurant"
  },
  {
    "name": "해남식당 부산용호동W스퀘어점",
    "district": "남구",
    "lat": 35.134193,
    "lng": 129.11122,
    "address": "부산광역시 남구 분포로 145 1072,1073호(용호동, 더블유)",
    "description": "김치요리전문식당인 이 곳은 배추산지로 유명한 해남의 배추를 사용 하여, 오랜 시간 숙성시킨 묵은지를 사용하는 것이 특징이며, 다양한 김치요리를 먹을 수 있다. 해남묵은지에 대한 높은 자부심을 가지고 있다.\n\n",
    "phone": "051-628-2015",
    "type": "restaurant"
  },
  {
    "name": "범일빈대떡",
    "district": "동구",
    "lat": 35.139576,
    "lng": 129.05621,
    "address": "동구 중앙대로 519",
    "description": "‘백종원의 3대천왕’이라는 유명 요리 버라이어티쇼에 출연했던 곳으로,\n지금은 흔치 않은 빈대떡 전문점이다. \n오래된 감성을 가지고 있는 이곳의 대표메뉴 빈대떡은 100% 녹두를 사용해서 만들며, \n담백하면서도 고소한 매력적인 맛이다.\n",
    "phone": "051-646-0081",
    "type": "restaurant"
  },
  {
    "name": "금강만두",
    "district": "동래구",
    "lat": 35.196102,
    "lng": 129.06027,
    "address": "부산 동래구 사직북로5번길 11",
    "description": "미식가들만 찾아가던 숨은 가게였지만\n현재 사람들이 쉽게 찾을 수 있는 큰 매장으로 옮겨 운영하고 있다.\n만두 뿐 아니라 깔끔한 맛의 육개장이 더 유명한 맛집이다.\n",
    "phone": "051-502-8784",
    "type": "restaurant"
  },
  {
    "name": "석화정",
    "district": "영도구",
    "lat": 35.07709,
    "lng": 129.07228,
    "address": "영도구 동삼로 42번길 16-11",
    "description": "20여 년을 운영해 온 굴요리 전문점으로, 제철 생굴, 굴구이, \n굴튀김, 굴파전, 굴김치 등 굴을 이용한 다양한 음식들을 즐길 수 있다. \n특히 대표메뉴인 굴국밥은 신선한 자연산 굴을 사용하여, 깔끔하고 풍부한 맛으로 인기 있다\n",
    "phone": "070-8913-9989",
    "type": "restaurant"
  },
  {
    "name": "연산낙지해물탕",
    "district": "연제구",
    "lat": 35.182316,
    "lng": 129.10692,
    "address": "부산 연제구 과정로 121\n",
    "description": "해물탕은 원래 푸짐한 해산물들이 담겨 나오는 음식이지만, 이 곳의 해물탕은 음식을 잘모르는 사람도 싱싱하다는 것을 알 수 있는 해산물들이 뚜껑이 닫히지 않을 정도로 담겨 나온다. 해물탕이 익을 때쯤 살아있는 낙지를 손질해 넣어주는 것이 특징이다.\n\n",
    "phone": "051-758-8838",
    "type": "restaurant"
  },
  {
    "name": "옻바다전복삼계탕",
    "district": "연제구",
    "lat": 35.18473,
    "lng": 129.08128,
    "address": "부산 연제구 월드컵대로 119번길 16\n",
    "description": "연산동 중심가골목에 위치한 삼계탕전문점으로, 대표적인 보양음식인 옻나무삼계탕에 전복을 추가하여 먹을 수 있는 것이 특징이다. 식전주로 옻술이 제공되는 이 곳은 TV프로그램에도 소개 된 유명한 식당이다.\n\n",
    "phone": "051-862-3307\n",
    "type": "restaurant"
  },
  {
    "name": "다리집 본점",
    "district": "수영구",
    "lat": 35.146637,
    "lng": 129.11076,
    "address": "수영구 남천바다로10번길 70 101호\n",
    "description": "부산에서 가장 유명한 떡볶이 전문점 중 한 곳으로, 포장마차 장사를 하던 시절에\n손님들의 다리만 밖에서 보인다하여 다리집이라 불리게 된 이곳은\n한 개만 먹어도 배가 부를 것 같은, 큼직한 떡볶이와 오징어튀김이 유명하다.\n",
    "phone": "051-625-0130",
    "type": "restaurant"
  },
  {
    "name": "광안리 언양불고기 부산집",
    "district": "수영구",
    "lat": 35.1479,
    "lng": 129.11357,
    "address": "부산 수영구 남천바다로 32\n",
    "description": "30여 년 전통의 광안리 언양불고기집으로, 엄선된 100% 한우암소와 직접 재배한 유기농 농작물을 사용한다. 큰 설명이 필요치 않은 식당 중 한 곳이다.\n",
    "phone": "051-754-1004",
    "type": "restaurant"
  },
  {
    "name": "식당 3선 덕천점",
    "district": "북구",
    "lat": 35.21927,
    "lng": 129.00708,
    "address": "부산 북구 금곡대로 112",
    "description": "숯불구이, 파삼겹구이, 밀면 등을 맛볼 수 있는 식당인 이곳은 나이와 취향에 관계없이 즐길 수있는 대중적인 맛이 특징으로, 넓은 공간을 가지고 있어 가족외식장소로 인기 있다. 메인요리인 숯불구이는 조리되어 제공되어서 먹기 편하다.\n\n",
    "phone": "051-333-0050",
    "type": "restaurant"
  },
  {
    "name": "함경면옥 덕천점",
    "district": "북구",
    "lat": 35.21178,
    "lng": 129.00423,
    "address": "부산 북구 금곡대로 21",
    "description": "22년의 전통을 가지고 있는 함흥냉면 전문점으로, 메뉴에 들어가는 모든 재료들을 직접 만든다. 고구마 전분 특유의 탄력과 쫄깃함을 가진 함흥식 냉면 사리가 특징이며, 진한 육수가 맛있는 물냉면과 숙성된 가오리 회가 올라가는 회비빔면이 인기메뉴이다.\n",
    "phone": "0507-1440-5034",
    "type": "restaurant"
  },
  {
    "name": "몽실종가돼지국밥 감천문화마을 본점",
    "district": "서구",
    "lat": 35.10019,
    "lng": 129.01718,
    "address": "서구 까치고개로 197번길 3, 1층",
    "description": "감천문화마을 근처에 있는 돼지국밥전문점으로, 청결한 실내와 친절한 점원들이 인상적이다.\n사골뼈를 24시간 이상 푹 고아 만든 국물이 유명하고, 국밥에 들어가는 고기양과 고기 종류를 \n선택할 수 있는 것이 특징이다.\n",
    "phone": "051-256-0133",
    "type": "restaurant"
  },
  {
    "name": "동원장수촌",
    "district": "사하구",
    "lat": 35.10194,
    "lng": 128.97113,
    "address": "사하구 동매로 117 건우리안 상가 B 201호",
    "description": "도자기 장인이 빚어낸 둥그런 뚝배기에 음식을 담아내는 보양음식전문점으로,\n모임 등의 장소로도 인기 있는 곳. 녹두한방백숙이 특히 인기 있는 메뉴로\n황기, 구기자, 감초 등의 한약재와 녹두오리를 오래 삶아 보약 같은 국물과 부드러운 고기가 특징이다.\n",
    "phone": "051-202-4100",
    "type": "restaurant"
  },
  {
    "name": "포항가자미물회국수말이전문점",
    "district": "사상구",
    "lat": 35.169525,
    "lng": 128.98228,
    "address": "부산광역시 사상구 사상로 275-1\n",
    "description": "소박한 느낌의 동네식당으로, 시원한 물회에 국수를 말아먹는 것으로 유명한 물회전문점이다. 갖은 양념에 무쳐진 회와 물회 육수가 따로 제공되며, 여름에는 신선한 토마토에 싸먹고 겨울에는 김에 싸먹는 것으로 유명한 곳이다.\n\n",
    "phone": "051-303-6640",
    "type": "restaurant"
  },
  {
    "name": "괘법쭈꾸미전문점",
    "district": "사상구",
    "lat": 35.163906,
    "lng": 128.98459,
    "address": "부산 사상구 광장로81번길 33",
    "description": "2007년 괘법동에서 시작한 이 지역의 대표적인 쭈꾸미요리전문점으로, 직접 만든 비법소스를 사용하여 매우면서도, 자꾸 먹게 되는 맛이 특징이다. 대표메뉴는 웰빙쭈꾸미이며, 단일메뉴로 꾸준한 맛을 유지 하고 있는 것이 오랜 인기의 비결이다.\n\n",
    "phone": "051-323-1383",
    "type": "restaurant"
  },
  {
    "name": "삼진어묵 본점",
    "district": "영도구",
    "lat": 35.092953,
    "lng": 129.04279,
    "address": "부산시 영도구 태종로99번길 36 ",
    "description": "삼진어묵은 1953년부터 3대 째 가억을 잇고있는 대한민국 대표 어묵 브랜드입니다.\n",
    "phone": "051-715-5865",
    "type": "restaurant"
  },
  {
    "name": "명지첫집 국제신도시본점",
    "district": "강서구",
    "lat": 35.095818,
    "lng": 128.92444,
    "address": "강서구 명지국제6로232번길 18",
    "description": "기분이 좋아지는 푸짐한 한상차림의 보쌈정식과 쭈꾸미보쌈이 대표메뉴로\n명지를 상징하는 식재료인 소금과 대파를 활용한 젓갈과 대파김치를 보쌈요리에 곁들였다. \n\n",
    "phone": "0507-1348-9599",
    "type": "restaurant"
  },
  {
    "name": "명품외식 육면정",
    "district": "남구",
    "lat": 35.148415,
    "lng": 129.09482,
    "address": "남구 황령대로 329",
    "description": "다양한 연회석과 어린이 시설, 넓은 주차장을 가지고 있는 큰 규모의 구이전문식당으로 질 좋은 소고기와 신선한 야채들을 제공하고, 최고등급의 위생수준을 인증 받았다. 단체모임이나 가족외식하기 좋은 곳 이다. \n",
    "phone": "051-623-6667",
    "type": "restaurant"
  },
  {
    "name": "평산옥",
    "district": "동구",
    "lat": 35.114292,
    "lng": 129.0371,
    "address": "동구 초량중로 26",
    "description": "4대에 걸쳐 운영하고 있는 100년 전통의 돼지수육전문식당으로 돼지수육과 수육 삶은 육수에 말은 국수가 유명하다. 국내산 신선한 고기로 만드는 육수는 맑은 국물 색과 담백하지만 진한 맛을 낸다. 100년을 이어온 자부심에 어울리는 맛이다.\n",
    "phone": "051-468-6255",
    "type": "restaurant"
  },
  {
    "name": "공감식당",
    "district": "부산진구",
    "lat": 35.16551,
    "lng": 129.03838,
    "address": "부산진구 동평로 81",
    "description": "보리를 사료로 키운 돼지를 전문가가 직접 선별, 숙성하여 전문교육을 받은 직원들이 직접 구워주는 구이전문점으로, 삼겹살과 구워먹는 치즈가 이 곳의 인기메뉴이다. 다양한 사이드 메뉴도 준비되어 있다.\n",
    "phone": "051-891-2041",
    "type": "restaurant"
  },
  {
    "name": "다옴 서면 삼정타워점",
    "district": "부산진구",
    "lat": 35.152874,
    "lng": 129.05957,
    "address": "부산진구 중앙대로 672, 삼정타워 5층",
    "description": "가볍게 즐길 수 있는 한식메뉴를 선보이는 식당으로 남해안멸치로 만드는 육수와 과일을 첨가하여 만든 숙성양념 등 음식준비에 많은 정성을 들인다. 차돌박이가 토핑 된 비빔국수와 비빔밥이 대표메뉴이다.\n",
    "phone": "0507-1370-3778",
    "type": "restaurant"
  },
  {
    "name": "당감밀면",
    "district": "부산진구",
    "lat": 35.162247,
    "lng": 129.03975,
    "address": "부산진구 당감로 5 삼익아파트상가 B동 1층",
    "description": "지역민들이 추천하는 밀면전문점으로 육수와 면·양념에 이르기까지 모든 재료를 주방장의 독자적인 비법으로 만들어 특징적인 밀면의 맛을 자랑한다. 직접 만드는 손만두도 담백한 맛으로 인기 있다.\n",
    "phone": "051-896-0177",
    "type": "restaurant"
  },
  {
    "name": "양평칼국수 본점",
    "district": "사하구",
    "lat": 35.048454,
    "lng": 128.967,
    "address": "사하구 다대로 680-1",
    "description": "다대포 해수욕장 인근의 식당으로 20년 경력의 칼국수 장인인 주인이 직접 반죽한 숙성면에 국산 배추로 매일 매일 담는 김치가 매력을 더한다. 여름에만 맛 볼 수 있는 냉칼국수, 냉콩칼국수 등의 한정메뉴들도 무척 인기 있다.\n",
    "phone": "051-265-0907",
    "type": "restaurant"
  },
  {
    "name": "영진돼지국밥 본점",
    "district": "사하구",
    "lat": 35.09664,
    "lng": 128.95784,
    "address": "사하구 하신번영로157번길 39",
    "description": "유명한 돼지국밥 전문점 중 한 곳으로, 항상 많은 사람들이 찾아오는 곳이다. 돼지 특유의 냄새를 제거하여 깔끔하고 담백한 맛을 자랑하며 수육과 두부, 볶음김치가  함께 나오는 수육백반이 무척 인기 있다.\n",
    "phone": "051-206-3820",
    "type": "restaurant"
  },
  {
    "name": "동원숯불갈비",
    "district": "연제구",
    "lat": 35.188595,
    "lng": 129.09715,
    "address": "연제구 과정로276번길 9",
    "description": "한적한 골목길에 숨겨져 있는 이 돼지갈비전문점은 38년간 숯불돼지갈비 한 메뉴로 이 장소를 지켜온 식당이다. 쉽게 찾기 힘든 위치에 있지만 친근하고 꾸준한 맛으로 많은 단골고객들이 찾아오는 곳.\n",
    "phone": "051-864-2379",
    "type": "restaurant"
  },
  {
    "name": "도날드",
    "district": "영도구",
    "lat": 35.085815,
    "lng": 129.04295,
    "address": "영도구 꿈나무길 267(1층)",
    "description": "지역민들에게 추억의 장소인 이곳은 35년간 운영해온 유명한 즉석떡볶이 전문점으로 해물 육수와 고추장소스를 사용하여 독특한 맛을 자랑한다. 후식으로 판매하는 빵크림을 먹기 위해 찾아오는 사람들도 많다.\n",
    "phone": "051-413-9990",
    "type": "restaurant"
  },
  {
    "name": "함흥보쌈사계절냉면",
    "district": "영도구",
    "lat": 35.08845,
    "lng": 129.04108,
    "address": "영도구 남항로 42",
    "description": "냉면전문점으로 시작하여 50여년을 운영 중인 보쌈전문점으로 싱싱한 고기를 사용하고 부드러운 맛으로 유명하다. 오랜 전통을 자랑하는 냉면도 인기메뉴이며 어떤 메뉴를 주문하든 만족스러운 양이 제공된다.\n",
    "phone": "051-416-2342",
    "type": "restaurant"
  },
  {
    "name": "원산면옥",
    "district": "중구",
    "lat": 35.098976,
    "lng": 129.03105,
    "address": "중구 광복로 56-8",
    "description": "60여 년의 전통을 가진 냉면전문점으로 3대째 운영하고 있는 무척 유명한 곳이다.\n한우와 국내산 생돼지고기, 생닭을 사용하고 10여 가지 재료가 들어간 육수로 만든 냉면은 변하지 않는 맛을 자랑한다.\n",
    "phone": "051-245-2310",
    "type": "restaurant"
  },
  {
    "name": "개미집신도시점",
    "district": "해운대구",
    "lat": 35.167637,
    "lng": 129.17154,
    "address": "해운대구 좌동로 10번길 51-5",
    "description": "부산의 대표적인 낙지요리전문점인 개미집의 분점으로, 본점에 뒤쳐지지 않는 맛을 선보이고 있다. 본점과 같이 낙지볶음, 낙지새우볶음, 낙지곱창볶음 등의 요리들이 모두 인기 있으며, 불고기낙지버섯전골과 곱창전골을 찾는 손님도 많다.\n",
    "phone": "051-744-6446",
    "type": "restaurant"
  },
  {
    "name": "오리한상 명지본점",
    "district": "강서구",
    "lat": 35.097855,
    "lng": 128.92471,
    "address": "명지국제9로 66, 지봉빌딩 2층",
    "description": "청둥오리를 사용한 소금구이와 급속 냉동된 오리를 아주 얇게 슬라이스한 불고기가 모두 인기있는 이곳은, 커다란 창을 활용한 깔끔하고 여유로운 공간과 함께 개별룸도 운영하고 있어 가족외식하기에도 좋은 곳이다.\n",
    "phone": "0507-1486-0417",
    "type": "restaurant"
  },
  {
    "name": "만포밀면옥",
    "district": "기장군",
    "lat": 35.245934,
    "lng": 129.21597,
    "address": "기장읍 차성로 322번길 40",
    "description": "매장에 들어서면 진한 육수냄새가 맛을 기대하게 하는 이곳은 가야식 밀면을 만들고 있는 곳으로, 95년 가게를 연 이후 매일 그 날 판매할 밀면을 시식하는 것으로 시작한다고 한다. 변하지 않는 맛은 언제나 기쁘다.\n",
    "phone": "0507-1350-7516",
    "type": "restaurant"
  },
  {
    "name": "맛사랑채",
    "district": "기장군",
    "lat": 35.24538,
    "lng": 129.2147,
    "address": "기장읍 읍내로 93-6",
    "description": "생선구이가 포함된 12가지의 반찬과 함께 매일 다른 국이 제공되는 이곳의 정식은 집밥 보다 더 집밥 같다는 평을 듣고 있다. 인심 가득한 밥상을 만나기 위해 먼 곳에서 찾아오는 손님들도 많다고 한다.\n",
    "phone": "051-722-4210",
    "type": "restaurant"
  },
  {
    "name": "우정까망촌돼지",
    "district": "사하구",
    "lat": 35.08081,
    "lng": 128.97154,
    "address": "장림번영로 53",
    "description": "구이전문점인 이곳은, 어린 시절 시골에서 먹던 돼지고기의 맛을 재현하기 위해 청정지역에서 키운 돼지를 공수해온다고 한다. 솥뚜껑에 구워먹는 것이 특징인데 맛도 맛이지만, 구워지는 모습이 정말 참기 힘들다.\n",
    "phone": "051-261-6021",
    "type": "restaurant"
  },
  {
    "name": "배꼽시계",
    "district": "기장군",
    "lat": 35.30255,
    "lng": 129.24944,
    "address": "부산광역시 기장군 일광읍 장곡길 63-14",
    "description": "약선 요리를 추구하여 수술 후 환자들도 자주 찾을 만큼 건강한 음식을 만드는 오리요리전문점으로 계절재료를 사용해 장아찌를 담고 2년 이상 숙성시킨 김치를 사용한다. 오리백숙은 시간이 많이 걸리니 2시간 이상 전 예약이 필수다.\n",
    "phone": "051-728-6118",
    "type": "restaurant"
  },
  {
    "name": "사랑도횟집",
    "district": "기장군",
    "lat": 35.247726,
    "lng": 129.21346,
    "address": "기장읍 차성로 337-1",
    "description": "매일 좋은 횟감을 선별해서 준비하고, 직접 만든 반찬들로 식탁을 채운다. 음식에 대해 정직하게 운영한다는 이곳은 단골이 많기로 유명한 횟집으로, 가격이 다소 높아 보이지만 음식이 차려지면 오히려 저렴하다는 생각이 들게 한다.\n",
    "phone": "051-722-7001",
    "type": "restaurant"
  },
  {
    "name": "부산족발",
    "district": "중구",
    "lat": 35.09956,
    "lng": 129.02664,
    "address": "중구 광복로 13-1",
    "description": "부평동 돼지족발골목에 위치한 족발전문점으로, TV 프로그램으로도 자주 소개되는 유명한 식당이다. 이 지역은 부산의 향토음식인 냉채족발이 탄생한 곳으로도 유명한데, 부산족발도 담백하고 탄력 있는 족발과 냉채족발이 유명하다.\n",
    "phone": "0507-1412-5359",
    "type": "restaurant"
  },
  {
    "name": "남포삼계탕",
    "district": "중구",
    "lat": 35.098812,
    "lng": 129.03049,
    "address": "남포길 16",
    "description": "광복로패션거리 근처에 있는 이곳은 50년 이상 운영해 온 유명한 삼계탕 전문점으로, 대표메뉴인 삼계탕은 뱃속에 찹쌀과 인삼, 밤, 대추를 채워 넣은 닭 한 마리를 육수에 넣고 뚝배기에 끓는 채로 내어준다. 전기구이도 인기 있다.\n",
    "phone": "051-245-5075",
    "type": "restaurant"
  },
  {
    "name": "대수정",
    "district": "동구",
    "lat": 35.140755,
    "lng": 129.06291,
    "address": "자성로 133번길 46",
    "description": "40년 이상 운영하고 있는 한식전문점으로 직접 운영하는 농장에서 공수한 재료로 된장, 간장, 김치 등을 만들고 있으며, 질 좋은 한우를 사용한다. 솥밥과 함께 차려지는 가득한 밥상이 기분 좋은 곳이다.\n",
    "phone": "051-647-0147",
    "type": "restaurant"
  },
  {
    "name": "동촌황정순수육전골",
    "district": "동구",
    "lat": 35.13937,
    "lng": 129.06071,
    "address": "조방로39-12",
    "description": "자극적이지 않지만 풍부한 맛의 국물요리가 특징인 곳으로, 미리 삶아 기름을 제거한 고기를 두껍게 썰어서 사용해 식감이 좋다. 모든 재료는 국내산을 사용하고 단 두 가지 메뉴만 정성껏 준비하고 있다.\n",
    "phone": "051-637-7178",
    "type": "restaurant"
  },
  {
    "name": "소우닭계",
    "district": "동구",
    "lat": 35.13942,
    "lng": 129.0646,
    "address": "조방로 16번길 20",
    "description": "이름처럼 소와 닭을 사용한 한식요리를 전문으로 하는 곳으로, 오너쉐프의 비법으로 만든 부드러운 갈비찜이 유명하다. 밑반찬까지 직접 장만하고 있는 이곳은 혼자서도 갈비찜을 먹을 수 있는 메뉴가 준비되어 있다.\n",
    "phone": "051-633-2292",
    "type": "restaurant"
  },
  {
    "name": "양지추어탕",
    "district": "동구",
    "lat": 35.130672,
    "lng": 129.04565,
    "address": "중앙대로371번길 70-4",
    "description": "커다란 가마솥으로 끓인 추어탕에 농가에서 공수한 고춧가루를 사용하고, 직접 담은 김치를 사용하는 안심할 수 있는 식당이다. 저렴한 가격에 비해 놀라운 맛과 푸짐한 양의 음식이 제공되어 단골고객이 많다고 한다.\n",
    "phone": "051-467-3924",
    "type": "restaurant"
  },
  {
    "name": "초량통닭",
    "district": "동구",
    "lat": 35.118904,
    "lng": 129.03996,
    "address": "초량로 15 ",
    "description": "1976년부터 40년이 넘게 운영하고 있는 이곳은, 이 지역에서는 모르는 사람이 드문 유명한 식당이다. 이곳의 육즙 가득한 프라이드치킨은 오랫동안 사랑받아온 메뉴로, 언제나 퇴근 후의 직장인들이 만석을 이루고 있다.\n",
    "phone": "051-468-2738",
    "type": "restaurant"
  },
  {
    "name": "먹음직 온천천점",
    "district": "동래구",
    "lat": 35.19219,
    "lng": 129.1003,
    "address": "온천천로431번길 4-1",
    "description": "온천천 카페거리에 있는 구이전문점인 이곳은, 유통도 함께 하고 있어 언제나 신선한 고기가 준비되어 있다. 직접 숙성한 고기와 함께 모든 음식을 정직하고 정성스럽게 제공하고 있는 곳으로 높은 평가를 받고 있다.\n",
    "phone": "0507-1319-2888",
    "type": "restaurant"
  },
  {
    "name": "세연정",
    "district": "동래구",
    "lat": 35.20514,
    "lng": 129.07704,
    "address": "충렬대로 149",
    "description": "소갈비로 유명한 구이전문 패밀리레스토랑으로 청결한 공간과 높은 수준의 서비스를 자랑하는 이곳은, 직거래하는 향토 식자재와 직접 만든 된장, 유명한 산지에서 공수한 재료들을 사용하여 정성들인 음식을 제공하고 있다.\n",
    "phone": "051-506-6666",
    "type": "restaurant"
  },
  {
    "name": "조방낙지마당",
    "district": "동래구",
    "lat": 35.19913,
    "lng": 129.05907,
    "address": "사직북로47번길 14-4",
    "description": "조방낙지라는 이름의 식당들은 대부분 보증된 맛을 가지고 있는데, 이곳 역시 보증된 낙지전문점이다. 이 지역에서 오랜 시간을 보내온 식당답게 단골손님도 많고, 다른 낙지전문점에 비해 낮은 가격이 마음을 든든하게 한다.\n",
    "phone": "051-505-0708",
    "type": "restaurant"
  },
  {
    "name": "초록담미역국",
    "district": "동래구",
    "lat": 35.194927,
    "lng": 129.05788,
    "address": "동래구 사직로 73, 2층",
    "description": "미역국에 사용되는 한우는 비계와 힘줄을 직접 제거하고, 직접 만든 반찬과 양념, 그리고 매일 새로 담근 김치를 준비한다. 이곳은 집밥같은 음식을 준비하는 미역국전문점으로 자극적이지 않은 맛으로 유명하다.\n",
    "phone": "0507-1422-5256",
    "type": "restaurant"
  },
  {
    "name": "동백아가씨1961 서면점",
    "district": "부산진구",
    "lat": 35.158566,
    "lng": 129.064,
    "address": "서전로37번길 18",
    "description": "빈티지한 인테리어의 카페 같은 이곳은 놀랍게도 유명한 즉석떡볶이 전문점이다. 유명산지의 고춧가루를 사용하는 등 좋은 재료를 사용하고, 라면부터 돈까스까지 다양한 토핑을 추가할 수 있는 매력적인 곳이다.\n",
    "phone": "0507-1373-1961",
    "type": "restaurant"
  },
  {
    "name": "전통음식점 원양",
    "district": "부산진구",
    "lat": 35.172222,
    "lng": 129.06995,
    "address": "동평로 420번길 23",
    "description": "좋은 재료로 직접담은 김치와 밑반찬, 시골집에서 공수한 장류 및 장아찌들을 사용하여 30년이 넘게 꾸준히 직장인들의 사랑을 받아온 곳으로, 미식가들 사이에서 특히 평이 좋은 곳이라 한다. 연회를 위한 단체석도 마련되어 있다.\n",
    "phone": "010-4545-0773",
    "type": "restaurant"
  },
  {
    "name": "구공탄",
    "district": "부산진구",
    "lat": 35.165436,
    "lng": 129.03777,
    "address": "동평로 75",
    "description": "주문과 함께 썰어내는 고기는 포를 뜨는 방식으로 썰어 더 좋은 식감을 자랑한다. 된장찌개로도 유명한 이곳은 오직 항정살만 전문적으로 취급하고 있는 구이전문점으로 운이 좋다면 유쾌한 이벤트도 경험할 수 있다.\n",
    "phone": "0507-1309-9204",
    "type": "restaurant"
  },
  {
    "name": "웅천집",
    "district": "북구",
    "lat": 35.26257,
    "lng": 129.0153,
    "address": "금곡대로616번길 7-14",
    "description": "1964년부터 3대째 운영하고 있는 전통 있는 식당으로, 3년 숙성 초장으로 만든 특제소스와 먹는 향어회가 특히 유명하지만, 고민 끝에 결국 장어구이와 매운탕까지 모든 메뉴를 먹게 된다는 무서운 곳이기도 하다.\n",
    "phone": "051-332-8740",
    "type": "restaurant"
  },
  {
    "name": "평양집",
    "district": "북구",
    "lat": 35.212116,
    "lng": 129.00589,
    "address": "금곡대로 20번길 21",
    "description": "24년째 운영 중인 평양식 수제만두집으로 흔치 않은 이북식 음식을 만날 수 있는 곳이다. 새벽마다 직접 만든 만두로 손님을 맞이하고 있으며, 100% 녹두를 이용해 만든 녹두전도 인기메뉴다.\n",
    "phone": "0507-1475-5455",
    "type": "restaurant"
  },
  {
    "name": "대왕불맛",
    "district": "사상구",
    "lat": 35.17614,
    "lng": 128.99005,
    "address": "덕상로 54, 1층",
    "description": "이곳은 테이크아웃과 배달을 전문으로 하는 내장요리전문점으로, 국내산 곱창·막창을 직화구이로 조리하여 제공한다. 수제양념으로 곱창 특유의 잡냄새를 제거한 매운 곱창메뉴가 인기 있다고 한다.\n",
    "phone": "051-303-5755",
    "type": "restaurant"
  },
  {
    "name": "전골그집 주례본점",
    "district": "사상구",
    "lat": 35.149475,
    "lng": 129.00208,
    "address": "가야대로 268-15, 1층",
    "description": "1년이 넘는 시간을 연구하여 만든 레시피로 만든 전골은 다소 찾기 힘든 골목 안쪽의 가게를 사람들로 북적이게 만들었다. 누구나 좋아할 것 같은 국물요리다.\n",
    "phone": "0507-1376-7988",
    "type": "restaurant"
  },
  {
    "name": "함양본가어탕국수",
    "district": "사상구",
    "lat": 35.159695,
    "lng": 128.98518,
    "address": "사상로181번길36",
    "description": "민물생선을 갈아서 만든 어탕국수는 생각보다 찾기 어려운 음식이다. 그래서인지 먼 거리에서 찾아오는 손님도 제법 많다는 이곳의 어탕국수는 많이 맵거나 자극적이지 않고 변함없는 맛으로 유명하다.\n",
    "phone": "051-312-4321",
    "type": "restaurant"
  },
  {
    "name": "우연횟집",
    "district": "사하구",
    "lat": 35.11137,
    "lng": 128.96355,
    "address": "낙동대로535번길18, 1층",
    "description": "오픈 전 웨이팅으로 유명한 횟집으로, 주문 즉시 잡은 활어를 사용한다. 두툼한 회를 접시가 넘치도록 담아서 주는데 가격마저 저렴한 편이라, 대학가 상권인 이 지역에서 가장 인기 있는 주점 중 한 곳이라고 한다.\n",
    "phone": "0507-1461-0813",
    "type": "restaurant"
  },
  {
    "name": "삼성밀면",
    "district": "부산진구",
    "lat": 35.181423,
    "lng": 129.05115,
    "address": "부산진구 월드컵대로449번길 47",
    "description": "60여 년째 밀면의 맛을 이어가고 있는 밀면전문점인 이곳은 유일하게 1세대 영업주가 운영하는 식당으로 부연 설명이 필요없는 식당이다.\n",
    "phone": "051-806-1256\n",
    "type": "restaurant"
  },
  {
    "name": "부산약콩밀면 이기대본점",
    "district": "남구",
    "lat": 35.123108,
    "lng": 129.11333,
    "address": "남구 동명로145번길 80 1층",
    "description": "밀면에 맛과 건강을 더하기 위해, 40년간 쌓인 노하우를 바탕으로 약콩과 함초, 톳으로 만든 천연간수와 기장 다시마로 직접 만든 식초를 사용하여 깊은 맛을 가진 특색 있는 밀면을 개발해 낸 밀면전문점.\n",
    "phone": "051-611-1231",
    "type": "restaurant"
  },
  {
    "name": "면채움",
    "district": "금정구",
    "lat": 35.24463,
    "lng": 129.0901,
    "address": "금정구 금정로231번길 11 ",
    "description": "건강한 밀면의 맛을 위해 오곡을 제분하여 직접 면을 뽑고 48시간 우려낸 육수와 과일, 채소로 맛을 낸 천연 양념장을 사용하는 밀면전문점으로, 추억의 음식인 비빔만두도 인기 있는 곳이다.\n",
    "phone": "0507-1468-4448",
    "type": "restaurant"
  },
  {
    "name": "대연밀면",
    "district": "남구",
    "lat": 35.13132,
    "lng": 129.08981,
    "address": "남구 천제등로 55(1층) ",
    "description": "2011년부터 영업 중인 밀면 전문점으로 이 지역에서 꾸준히 사랑받아 온 식당이다. 기본에 충실한 전통적인 밀면의 맛을 가지고 있으며, 이곳 역시 웨이팅을 감수하고 찾아야 하는 곳이기도 하다.\n",
    "phone": "0507-1355-6120",
    "type": "restaurant"
  },
  {
    "name": "합천국밥집",
    "district": "남구",
    "lat": 35.111244,
    "lng": 129.11125,
    "address": "남구 용호로 235",
    "description": "부산의 돼지국밥을 이야기할 때 빠지지 않는 곳 중 한 곳으로 다른 유명 돼지국밥집과는 다르게 맑고 깔끔한 국물이 특징이다. 국산 돼지고기만 사용하는데, 큼직한 고기가 아낌없이 들어가 있다.\n",
    "phone": "051-628-4898",
    "type": "restaurant"
  },
  {
    "name": "정짓간 돼지국밥 & 막국수",
    "district": "사하구",
    "lat": 35.095695,
    "lng": 128.96248,
    "address": "사하구 비봉로 6 1층",
    "description": "부엌의 경상도 방언을 상호로 쓰는 이곳은 가마솥에서 48시간 끓여 돼지국밥을 만든다. 수육백반의 고기는 삼겹살과 항정살 중 선택할 수 있고, 국밥 역시 고기와 온도, 맵기 등 취향대로 선택할 수 있는 것이 장점이다.\n",
    "phone": "0507-1411-2900",
    "type": "restaurant"
  },
  {
    "name": "우리돼지국밥",
    "district": "동구",
    "lat": 35.11995,
    "lng": 129.03925,
    "address": "동구 초량로 27-1 ",
    "description": "1975년부터 3대째 운영하고 있는 이곳은, 24시간 국물을 계속 끓이며 전통적인 토렴방식을 유지하고 있는 곳이다. 돼지 한 마리를 통째로 사용하기 때문에 원하는 부위를 주문하면 즉시 조리해 준다고 한다.\n",
    "phone": "051-468-5623",
    "type": "restaurant"
  },
  {
    "name": "수복돼지국밥",
    "district": "연제구",
    "lat": 35.1859,
    "lng": 129.0869,
    "address": "연제구 고분로 41-1 2층",
    "description": "국내산 돼지고기와 내장, 직접 만든 순대를 사용하고, 김치와 깍두기 역시 직접 담는다. 이른 시간부터 누구에게 대접해도 손색없이 음식준비에 정성을 들이고 있으며, 넓은 주차장과 청결한 매장을 갖추고 있다.\n",
    "phone": "051-866-3349",
    "type": "restaurant"
  },
  {
    "name": "부광돼지국밥전문점",
    "district": "중구",
    "lat": 35.104244,
    "lng": 129.03506,
    "address": "중구 대청로 141번길 15-1",
    "description": "3대에 걸쳐 40여 년을 영업 중인 이곳은 전통적인 방식으로 돼지국밥을 만들고 있는 곳이다.\n김치와 깍두기는 직접 담그며, 오래도록 인기 있는 가게답게 신선하고 좋은 재료를 고집한다고 한다.\n",
    "phone": "051-466-1708",
    "type": "restaurant"
  },
  {
    "name": "행복을 짓는 수향촌밥상",
    "district": "사하구",
    "lat": 35.053585,
    "lng": 128.97047,
    "address": "사하구 다대로 592",
    "description": "가족단위 손님이 많이 찾는다는 추어요리전문점으로 진한 국물의 추어탕이 대표메뉴.\n직영 양어장을 운영하는 등 건강하고 좋은 재료를 사용하기 위해 많은 노력을 기울이고 있는 곳이다.\n",
    "phone": "051-266-4726",
    "type": "restaurant"
  },
  {
    "name": "해물왕창칼국수",
    "district": "사상구",
    "lat": 35.1727,
    "lng": 128.98376,
    "address": "사상구 사상로 316",
    "description": "칼국수의 맛을 내는 조개류는 전라도 고흥에서 매일 공수해오고 있으며, 해물탕에 넣어먹는 자가제면 칼국수는 매일 직접 반죽하여 숙성 시킨다. 신선한 재료와 정성이 듬뿍 들어간 칼국수는 오늘도 인기 있다.\n",
    "phone": "0507-1357-2579",
    "type": "restaurant"
  },
  {
    "name": "할매재첩국부산본점",
    "district": "수영구",
    "lat": 35.151875,
    "lng": 129.11638,
    "address": "수영구 광남로120번길 8",
    "description": "1950년 구포에서 재첩국 판매를 시작하여 지금의 자리로 온 것은 20여년이 되었다고 하는 재첩국전문점으로, 이른 시간부터 운영하고 있어 아침을 먹으러 오는 손님들도 많다.\n서울에 직영점을 운영하고 있기도 하다.\n",
    "phone": "0507-1400-7658",
    "type": "restaurant"
  },
  {
    "name": "동래할매파전",
    "district": "동래구",
    "lat": 35.204575,
    "lng": 129.08385,
    "address": "동래구 명륜로 94번길 43-10",
    "description": "4대를 이어오고 있는 유명한 식당으로 부산의 대표적 향토음식인 동래파전의 전통을 이어가고 있는 곳. 사진으로는 담을 수 없는 식재료의 푸짐함을 느낄수 있다.\n",
    "phone": "051-552-0792",
    "type": "restaurant"
  },
  {
    "name": "박해윤통영해물밥상",
    "district": "동래구",
    "lat": 35.191082,
    "lng": 129.10825,
    "address": "동래구 연안로 38",
    "description": "통영에서 수급한 신선한 해산물을 사용하는 한정식전문점으로, 정갈한 음식과 넓은 주차장, 잘 꾸며진 쾌적한 실내를 갖추고 있어 돌잔치, 상견례 등의 행사로도 많이 찾는 곳이다\n",
    "phone": "051-525-0120",
    "type": "restaurant"
  },
  {
    "name": "원조꼬리곰집",
    "district": "동래구",
    "lat": 35.216038,
    "lng": 129.08095,
    "address": "동래구 온천장로 52",
    "description": "1980년에 개업하여 오랜 시간 사랑받고 있는 곳으로, 껍데기를 보존하여 요리하는 특별한 방식으로 더 부드러운 육질을 자랑한다. 기본에 충실하게 많은 양의 고기를 오랜 시간 삶는 것이 비법이라고 한다.\n",
    "phone": "0507-1379-1134",
    "type": "restaurant"
  },
  {
    "name": "하동재첩국",
    "district": "사상구",
    "lat": 35.19344,
    "lng": 128.98584,
    "address": "사상구 낙동대로1518번길 33",
    "description": "재첩국 전문 식당이 모여 있는 이 지역에서도 인기 있는 재첩국 전문점으로, 섬진강의 국산 재첩만을 사용하여, 소금물에 담가 해감을 하고, 수 차례 깨끗이 씻은 다음 끓인 국물은 간과 위의 건강에 도움이 된다고 한다. 이곳은 재첩을 회와 찜으로 새롭게 연구하여 재첩 요리를 정착시킨 곳이기도 하다.\n",
    "phone": "051-301-7200",
    "type": "restaurant"
  },
  {
    "name": "하기연진주냉면",
    "district": "사하구",
    "lat": 35.102787,
    "lng": 128.9677,
    "address": "사하구 괴정로 34",
    "description": "멸치, 바지락, 다시마가 들어간 해물육수를 사용하고 고명으로 육전이 올라가는 진주냉면은 보기 힘든 음식 중 하나로 그만큼 전수받은 사람이 드물다고 한다. 이곳은 제주도산 흑메밀만 사용하여 면을 만드는 것이 특징.\n",
    "phone": "051-207-6555",
    "type": "restaurant"
  },
  {
    "name": "장안집",
    "district": "기장군",
    "lat": 35.369785,
    "lng": 129.24432,
    "address": "기장군 장안읍 장안로 365",
    "description": "바로 옆에는 계곡이 있고 인근에는 유명사찰인 장안사가 있는 한옥형태의 넓은 식당. 넓은 주차장과 개별 룸들이 있어 가족, 단체로 식사하러 가기 좋은 곳이다. 오리백숙으로 유명한 곳이기도 하다.\n",
    "phone": "051-727-1819",
    "type": "restaurant"
  },
  {
    "name": "이가네칼국수",
    "district": "사상구",
    "lat": 35.163177,
    "lng": 128.97974,
    "address": "사상구 광장로 27",
    "description": "사상시외버스터미널 인근은 맛있는 식당들이 모여 있기로 유명한데, 이곳 역시 그 유명한 식당 중 한 곳이다. 해물이 가득한 칼국수와 100% 수제로 만드는 만두, 그리고 밀면까지 무엇을 주문하더라도 만족스러운 식사가 될 것이다.\n",
    "phone": "051-322-8131",
    "type": "restaurant"
  },
  {
    "name": "이가네떡볶이",
    "district": "중구",
    "lat": 35.10156,
    "lng": 129.02602,
    "address": "중구 부평1길 48",
    "description": "유명 TV쇼에 출연하여 더욱 명성이 높아진 곳으로 전국적으로 많이 알려져 있어 부산 원도심관광의 필수코스 중 하나로 꼽히는 가게이기도 하다. 언제나 사람들로 북적이는 인기 가게이다.\n",
    "phone": "051-245-0413",
    "type": "restaurant"
  },
  {
    "name": "우성삼계탕",
    "district": "수영구",
    "lat": 35.16719,
    "lng": 129.11409,
    "address": "수영구 광서로10번길 68",
    "description": "40여 년을 삼계탕만 만들어 온 전통 있는 삼계탕전문점으로, 마늘 향이 진하게 느껴지는 국물이 특징이다. 오랜 시간 단일메뉴로 운영된 곳답게 항상 많은 손님들로 북적이고 있으며, 기본으로 제공되는 똥집튀김이 아주 인기 있다.\n",
    "phone": "051-751-2984",
    "type": "restaurant"
  },
  {
    "name": "몽뜰",
    "district": "동래구",
    "lat": 35.210857,
    "lng": 129.07614,
    "address": "동래구 중앙대로 1381번길 33 ",
    "description": "한우구이 전문식당으로 육회비빔밥과 차돌 된장찌개를 찾는 고객이 많은 곳이다.\n육회비빔밥 양념장은 고추장이 아니라 직접 만든 비법양념장으로 더 깔끔한 맛이 특징이며 차돌 된장찌개가 맛있기로도 유명하다.\n",
    "phone": "0507-1482-6022",
    "type": "restaurant"
  },
  {
    "name": "조광심민속왕순대",
    "district": "동래구",
    "lat": 35.20074,
    "lng": 129.09787,
    "address": "동래구 반송로 223",
    "description": "선지와 막창으로 만든 피순대는 냉동을 할 수 없어 즉석에서 수작업으로 만들고, 모든 메뉴는 국산 재료를 사용한다.\n월요일 휴무에는 자비로 무료 급식을 운영하는 이곳은 유난히 단골들이 많은 따뜻한 식당이다.\n",
    "phone": "051-527-3927",
    "type": "restaurant"
  },
  {
    "name": "할매집회국수",
    "district": "중구",
    "lat": 35.09885,
    "lng": 129.03146,
    "address": "중구 남포길 25-3",
    "description": "70여 년을 운영하고 있는 유명한 식당으로, 부산의 원도심을 대표하는 식당 중 한 곳이다.\n특유의 매운맛과 가오리회가 고명인 회국수가 대표메뉴로 이곳의 맛을 잊지 못해 타지역에서도 꾸준히 찾아오는 사람들이 많다고 한다.\n",
    "phone": "051-246-4741",
    "type": "restaurant"
  },
  {
    "name": "나탄약선요리",
    "district": "부산진구",
    "lat": 35.18711,
    "lng": 129.04843,
    "address": "부산진구 성지곡로 51번길 4",
    "description": "한국전통요리를 기반으로 일체의 화학조미료를 배제하여 재료 본연의 맛을 살리고 첨가되는 약재로 식사 내내 배려받는 느낌을 주는 기분좋은 곳이다.\n",
    "phone": "051-504-7733",
    "type": "restaurant"
  },
  {
    "name": "부다면옥",
    "district": "해운대구",
    "lat": 35.162384,
    "lng": 129.16298,
    "address": "해운대구 중동1로 36 2층",
    "description": "평양냉면을 전문으로 하는 이곳은, 깔끔하고 시원한 목 넘김을 위해 한우 사태 및 여러 야채들을 주재료로 하여, 모든 육수 통을 따로 끓이고 식히는 전통 방식으로 육수를 만든다. 사진으로는 표현되지 않는 깊은 맛을 가진 곳이다.\n",
    "phone": "051-746-8872",
    "type": "restaurant"
  },
  {
    "name": "본 고갈비",
    "district": "동래구",
    "lat": 35.20054,
    "lng": 129.08878,
    "address": "동래구 충렬대로 272번길 2",
    "description": "500도 화덕에서 구운 고등어화덕구이가 이곳의 대표메뉴로 바삭하게 잘 굽혀진 고등어는 촉촉한 식감을 자랑한다. 함께 제공되는 반찬은 가짓수도 많고 셀프코너에서 리필할 수 있어 인기 높은 식당이다.\n",
    "phone": "0507-1327-5892",
    "type": "restaurant"
  },
  {
    "name": "돌솥밥집",
    "district": "중구",
    "lat": 35.099976,
    "lng": 129.02908,
    "address": "중구 광복로 37번길 7-1",
    "description": "뜨거운 돌솥에 나온 밥을 나물이 들어있는 비빔그릇에 담아 비빔밥을 만들어 먹기도 하고 함께 나온 된장찌개나 순두부찌개와 먹기도 한다.\n40여 년을 운영하고 있는 이곳은 많은 설명을 필요로 하지 않는 식당 중 한 곳이다.\n",
    "phone": "051-246-3888",
    "type": "restaurant"
  },
  {
    "name": "맹여사육전육회",
    "district": "사상구",
    "lat": 35.165836,
    "lng": 128.9835,
    "address": "사상구 광장로81번길 79 2층",
    "description": "그냥 먹어도 맛있는 육전과 육회는 다양한 방법으로 먹을 수 있어 질리지가 않는다.\n육전이 식지 않게 조금씩 구워서 제공하는 세심함은 왜 이곳이 많은 사람들에게 사랑받는지 알 수 있게 되는 부분이다.\n",
    "phone": "0507-1372-5203",
    "type": "restaurant"
  },
  {
    "name": "대성칼치찌개구이",
    "district": "기장군",
    "lat": 35.22375,
    "lng": 129.23132,
    "address": "기장군 기장읍 대변2길 9",
    "description": "갈치찌개와 구이, 멸치회와 찌개가 맛있는 대변항인근 식당으로 로컬 단골고객이 많은 식당. \n신선한 생멸치와 제주산 생갈치를 사용하여 볼륨감 있고 부드러운 맛이 특징이다.\n",
    "phone": "051-721-2289",
    "type": "restaurant"
  },
  {
    "name": "올바릇식당 본점",
    "district": "기장군",
    "lat": 35.282795,
    "lng": 129.25926,
    "address": "기장군 일광읍 문오성길61",
    "description": "하루 1,000여명이 방문한다고 하는 인기 높은 식당. \n국내산 재료만을 사용한 특제소스로 만든 꼬막비빔밥, 육전 등을 이색적인 플레이팅으로 담아낸다. 방문 시 웨이팅은 필수.\n",
    "phone": "070-8845-7277",
    "type": "restaurant"
  },
  {
    "name": "알천순대곱창전골전문점",
    "district": "남구",
    "lat": 35.138542,
    "lng": 129.1047,
    "address": "남구 용소로 7번길 88",
    "description": "직접공수한 재료들로 직접 만드는 순대와 직접 손질한 곱창 등 모든 과정이 정성스럽다. \n진한 육수와 부드러운 맛으로 대학생부터 중장년층까지 다양하게 찾아오는 곳이다.\n",
    "phone": "051-612-5952",
    "type": "restaurant"
  },
  {
    "name": "배종관동래삼계탕",
    "district": "동래구",
    "lat": 35.20526,
    "lng": 129.08475,
    "address": "동래구 동래로 116번길 39",
    "description": "파채가 듬뿍 올라간 것이 특징인 이곳의 삼계탕은, 30년 전통이 만들어낸 비법 사골육수를 사용하여 냄새 없이 담백한 맛을 자랑한다. \n많은 사람들이 찾는 만큼 웨이팅이 필수인 곳이다.\n",
    "phone": "051-555-2464",
    "type": "restaurant"
  },
  {
    "name": "신가네 호떡 김밥 떡볶이",
    "district": "동래구",
    "lat": 35.204052,
    "lng": 129.08676,
    "address": "동래구 충렬대로 249번길 61",
    "description": "동래시장에서 26여 년을 영업 중인 분식점으로 남녀노소, 내·외국인 구분 없이 많은 사람들이 찾는 곳이다. 우엉 등의 김밥재료는 국내산만 사용한다고 한다.\n",
    "phone": "051-552-2644",
    "type": "restaurant"
  },
  {
    "name": "기장손칼국수",
    "district": "부산진구",
    "lat": 35.15566,
    "lng": 129.05814,
    "address": "부산진구 서면로 56",
    "description": "손으로 직접반죽해 만드는 칼국수로 유명한 칼국수전문점으로 진한 멸치육수에 직접 만든 양념과 다진 마늘 등을 올려먹는 것이 특징이다.\n",
    "phone": "051-806-6832",
    "type": "restaurant"
  },
  {
    "name": "두번째 늘해랑",
    "district": "부산진구",
    "lat": 35.17058,
    "lng": 129.07031,
    "address": "부산진구 양지로 5번길 24",
    "description": "수육백반으로 유명한 늘해랑의 두 번째 가게로 매일 수제로 찹쌀순대를 만들고 국내산 고기, 야채, 김치를 사용한다. 수육과 함께 제공되는 식해가 특징이다.\n",
    "phone": "051-867-5382",
    "type": "restaurant"
  },
  {
    "name": "골목포차",
    "district": "수영구",
    "lat": 35.159405,
    "lng": 129.11446,
    "address": "수영구 광안로7번길 52",
    "description": "엄마가 차려준 술상이라는 문구가 재미있는 이곳은 왁자지껄 즐거운 분위기의 주점으로 다양한 메뉴를 가지고 있다.\n매일 다양한 연령층이 웨이팅을 감수하고 찾아오고 있다.\n",
    "phone": "051-756-3988",
    "type": "restaurant"
  },
  {
    "name": "재기돼지국밥",
    "district": "영도구",
    "lat": 35.08963,
    "lng": 129.03987,
    "address": "영도구 절영로 49번길 25",
    "description": "55년을 운영해온 영도 남항시장의 유명한 돼지국밥전문점으로 전통적인 토렴방식으로 뜨겁게 나오는 돼지국밥에는 고기 이외에 여러 부위를 취향에 맞게 주문할 수 있다.\n",
    "phone": "051-418-0526",
    "type": "restaurant"
  },
  {
    "name": "소공간",
    "district": "해운대구",
    "lat": 35.16169,
    "lng": 129.16737,
    "address": "해운대구 해운대해변로 298번길 47, 4층",
    "description": "작은 공간(小空間)과 소(牛)를 다루는 솜씨라는 의미의 소공간은 한우(1++)를 메인으로 당일 공수한 지역 색 가득한 제철 식재료의 조화로운 구성이 돋보이는 한식 다이닝이다.\n",
    "phone": "010-5191-9002",
    "type": "restaurant"
  },
  {
    "name": "백가백반",
    "district": "남구",
    "lat": 35.13379,
    "lng": 129.11293,
    "address": "남구 분포로 145, W스퀘어 상가동 2층 2097호",
    "description": "한식을 기본으로 한 집밥스타일의 백반집으로 정갈한 상차림을 선보인다. 잘 구워진 생선구이가 인기있는 이곳은 모든 반찬을 직접 만들고 메인메뉴는 주문 후 바로 조리되어 나온다.\n",
    "phone": "051-711-0211",
    "type": "restaurant"
  },
  {
    "name": "가야포차선지국밥 본점",
    "district": "부산진구",
    "lat": 35.14817,
    "lng": 129.0299,
    "address": "부산진구 가야공원로 58",
    "description": "24시간 영업으로 30여 년을 운영해오고 있는 이곳에서는 수구레국밥 등 쉽게 찾기 힘든 수구레요리를 만날 수 있다. 16시 이후로는 술과 곁들일 수 있는 요리를 주문할 수 있는 편안한 가게이다.\n",
    "phone": "051-894-6921",
    "type": "restaurant"
  },
  {
    "name": "못난이식당 해운대점",
    "district": "해운대구",
    "lat": 35.154926,
    "lng": 129.1445,
    "address": "해운대구 마린시티1로 91, 101동 201호",
    "description": "큼직한 제주산 갈치를 사용하는 갈치요리전문점으로, 신선도가 중요한 갈치회무침을 만날 수 있다. 늙은호박을 사용해서 단맛을 내는 건강한 음식을 만들고 있다.\n",
    "phone": "0507-1418-2528",
    "type": "restaurant"
  },
  {
    "name": "손내향미",
    "district": "부산진구",
    "lat": 35.153034,
    "lng": 129.06851,
    "address": "부산진구 동성로 30번길 4",
    "description": "눈 앞에서는 솥밥을 짓는 모습이 보이고 화로에서 굽히는 목포식갈비의 향이 공간을 채운다. 오롯이 식사에 집중할 수 있는 이 공간에 20여 분간 기다린 목포식 갈비솥밥이 차려진다.\n",
    "phone": "051-715-4648",
    "type": "restaurant"
  },
  {
    "name": "수블",
    "district": "해운대구",
    "lat": 35.159527,
    "lng": 129.17055,
    "address": "해운대구 달맞이길 62번길 19, 2층",
    "description": "자신이 먹고 싶은 것을 메뉴로 하고, 마시고 싶은것들을 판다고 하는 이 곳은 아름다운 풍경과 함께 수준 높은 요리로 인기 높은 요리주점이다. 청결하게 관리되고 있는 오픈키친이 인상적이다.\n",
    "phone": "0507-1411-0178",
    "type": "restaurant"
  },
  {
    "name": "1969부원동칼국수 부산본점",
    "district": "중구",
    "lat": 35.097927,
    "lng": 129.03316,
    "address": "중구 구덕로22번길3 1층",
    "description": "신선도를 유지하기 위해 매일 아침 경매된 식재료를 공수하여 재료소진 시까지 한정 판매하고 있는곳으로 신선한 굴과 가리비가 듬뿍 올려진 칼국수를 만날 수 있다. 18시쯤 재료가 소진되는 경우가 많다고 한다.\n",
    "phone": "0507-1477-9925",
    "type": "restaurant"
  },
  {
    "name": "동삼정",
    "district": "중구",
    "lat": 35.10059,
    "lng": 129.03143,
    "address": "중구 광복중앙로 14-62 1층",
    "description": "깔끔한 공간에서 서양식 조리법으로 만든 독특한 한식 창작요리를 만날 수 있는 이 곳은 계절마다 제철음식을 사용하여 다양한 술과 어울리는 음식이 기다리고 있는 한식주점이다.\n",
    "phone": "051-912-8343",
    "type": "restaurant"
  },
  {
    "name": "삼락하동재첩국",
    "district": "사상구",
    "lat": 35.193256,
    "lng": 128.98576,
    "address": "사상구 낙동대로1518번길 33",
    "description": "재첩국 전문 식당이 모여 있는 이 지역에서도 인기 있는 재첩국 전문점으로, 섬진강의 국산 재첩만을 사용하여, 소금물에 담가 해감을 하고, 수차례 깨끗이 씻은 다음 끓인 국물은 간과 위의 건강에 도움이 된다고 한다. 이곳은 재첩을 회와 찜으로 새롭게 연구하여 재첩 요리를 정착시킨 곳이기도 하다.\n",
    "phone": "051-301-7200",
    "type": "restaurant"
  },
  {
    "name": "남천면가",
    "district": "수영구",
    "lat": 35.139626,
    "lng": 129.10675,
    "address": "수영구 황령대로473번길 14-2",
    "description": "국내산 메밀을 사용하여 매일 직접 반죽하고 뽑는 메밀면을 제공하고 있는 곳으로, 건강한 음식을 대접하고 싶은 마음으로 음식 한 그릇마다 많은 정성과 시간을 담아 내놓는다고 한다.\n",
    "phone": "0507-1349-1631",
    "type": "restaurant"
  },
  {
    "name": "닭발의 지존",
    "district": "수영구",
    "lat": 35.170143,
    "lng": 129.11069,
    "address": "수영구 연수로 374",
    "description": "40여 년을 닭발과 조개탕만 만들어 온 전통있는 닭발전문점으로 매콤한 수제양념의 닭발과 시원한 국물의 조개탕이 무척 잘 어울리는 조합이다. 오랜시간 많은 사람들에게 사랑받아온 가게이다. \n",
    "phone": "051-865-8449",
    "type": "restaurant"
  },
  {
    "name": "백일평냉",
    "district": "수영구",
    "lat": 35.148556,
    "lng": 129.11166,
    "address": "수영구 남천바다로10번길 29, 1층",
    "description": "전통의 맛과 냉면 기술자들의 고집으로, 오직 고깃국물과 소금으로만 만들어진 육수와 80% 함량의 메밀면으로 만든 제대로 된 평양냉면을 완성하였다. 수제 이북 만둣국, 한우 불고기 등의 메뉴도 준비되어 있다.\n",
    "phone": "051-625-5515",
    "type": "restaurant"
  },
  {
    "name": "자매국밥",
    "district": "수영구",
    "lat": 35.158283,
    "lng": 129.12569,
    "address": "수영구 민락본동로27번길 56",
    "description": "30여 년을 운영해온 곳으로 매일 새 머릿고기로 우려낸 육수를 사용하여 지역민들에게 사랑받아 온 골목식당이다. 된장베이스의 양념으로 진하고 강한 맛이 특징이다.\n",
    "phone": "051-752-1912",
    "type": "restaurant"
  },
  {
    "name": "청산1954",
    "district": "수영구",
    "lat": 35.148266,
    "lng": 129.10788,
    "address": "수영구 황령산로 29",
    "description": "12가지 한약재로 삶은 후 편백나무에 쪄낸 한방보쌈을 576시간 수경재배로 직접 키운 새싹쌈과 함께 제공하고 있는 곳이다. 1968년 지어진 목조건물이 재생건축을 통해 재탄생한 곳이기도 하다.\n",
    "phone": "051-622-1954",
    "type": "restaurant"
  },
  {
    "name": "대성갈치찌개구이",
    "district": "기장군",
    "lat": 35.2239,
    "lng": 129.23161,
    "address": "기장군 기장읍 대변2길 9",
    "description": "갈치찌개와 구이, 멸치회와 찌개가 맛있는 대변항 인근 식당으로 로컬 단골고객이 많은 식당. 신선한 생멸치와 제주산 생갈치를 사용하여 볼륨감 있고 부드러운 맛이 특징이다.\n",
    "phone": "051-721-2289",
    "type": "restaurant"
  },
  {
    "name": "신발원",
    "district": "동구",
    "lat": 35.114815,
    "lng": 129.03873,
    "address": "부산 동구 대영로243번길62",
    "description": "부산차이나타운의 양대 만두전문점 중 하나인 유명한 식당으로, 시간과 관계없이 길게 줄이 서있는 곳이다. 중국빵과 만두를 전문으로 하는 이 곳의 만두는 두께감이 느껴지는 푹신한 만두피와 풍부한 육즙의 고기만두가 대표음식이다.\n\n",
    "phone": "051-467-0177",
    "type": "restaurant"
  },
  {
    "name": "북경",
    "district": "연제구",
    "lat": 35.18377,
    "lng": 129.08086,
    "address": "부산 연제구 중앙대로 1076번길 11\n",
    "description": "연산동의 중심가골목에 위치한 중식당으로 요리를 전문으로 하여 이 지역 회사원들이 회식장소로도 자주 찾는 곳이다. 모든 메뉴의 수준이 높은 곳이기도 하지만, 특히 짜장면이 맛있기로 유명하다.\n\n",
    "phone": "051-863-0055",
    "type": "restaurant"
  },
  {
    "name": "북경의자전거",
    "district": "북구",
    "lat": 35.230934,
    "lng": 129.00957,
    "address": "부산광역시 북구 용당로5번길 14",
    "description": "본격적인 중국풍의 인테리어가 특색있는 이 중식당은 중국인 쉐프들이 요리하고 있는 것으로 유명하다. 사용되는 면은 전통방식인 수타로 만들고, 다양하고 많은 종류의 요리들을 만드는 단골 손님이 많은 가게이다.\n\n",
    "phone": "051-902-8282",
    "type": "restaurant"
  },
  {
    "name": "편의방",
    "district": "서구",
    "lat": 35.11915,
    "lng": 129.01625,
    "address": "서구 대신공원로 13-5\n",
    "description": "빨간 간판이 눈에 띄는 이곳은 3대째 이어오는 중국만두전문점으로, \n하루에 40인분 한정에, 30분 전에 미리 전화로 주문해야 한다는 삼선만두가 유명한 곳이다.\n주문과 동시에 만드는 삼선만두는 각종야채와 새우가 가득 차 육즙이 흘러넘친다.\n",
    "phone": "051-256-2121",
    "type": "restaurant"
  },
  {
    "name": "신흥반점",
    "district": "서구",
    "lat": 35.09595,
    "lng": 129.02463,
    "address": "서구 충무대로 284-1",
    "description": "2대째 운영 중인 신흥반점은 서구에서 55년 동안 화교 가족들이 운영해오고 있는 곳으로, 중국 현지의 식당 같은 분위기의 가게에서 다양한 중국요리를 맛 볼 수 있다. 짬뽕국물과 깐풍기가 이 곳에서 추천하는 인기 메뉴이다.\n",
    "phone": "051-242-6164",
    "type": "restaurant"
  },
  {
    "name": "화국반점",
    "district": "중구",
    "lat": 35.10253,
    "lng": 129.0342,
    "address": "중구 백산길3 ",
    "description": "43년 전통의 중식전문점으로 간짜장이 특히 유명한 이곳은, 전통적인 방식의 요리로 외국인들이 많이 찾는 곳이기도 하다. 신세계와 범죄와의 전쟁 등 영화촬영지로도 유명하다.\n",
    "phone": "051-245-5305",
    "type": "restaurant"
  },
  {
    "name": "홍성방 본점",
    "district": "동구",
    "lat": 35.113834,
    "lng": 129.03781,
    "address": "동구 중앙대로 179번길 16",
    "description": "3대에 걸쳐 50년이 넘게 운영해오고 있는 이곳은, 부산차이나타운에서도 가장 유명한 식당 중 한 곳이다. 오래전부터 영주동 물만두집으로 불렸을 만큼 물만두가 인기 있으며, 주말에는 지방에서도 찾아오는 단골손님들이 많다.\n",
    "phone": "051-467-5398",
    "type": "restaurant"
  },
  {
    "name": "미미루",
    "district": "동래구",
    "lat": 35.219486,
    "lng": 129.08296,
    "address": "온천장로 91-1",
    "description": "스타일리시한 중화요리로 인기 높은 이곳은 보통의 중식전문점에서 쉽게 만날 수 없는 다양한 중화요리를 만날 수 있다. 식사시간은 웨이팅이 필수인 곳이기도 하다.\n",
    "phone": "051-555-6609",
    "type": "restaurant"
  },
  {
    "name": "금용만두",
    "district": "북구",
    "lat": 35.205463,
    "lng": 128.99666,
    "address": "구포만세길 75",
    "description": "1960년부터 운영해온 중국만두전문점으로 찐돼지껍질과 사태, 소꼬리 살로 소를 만드는 산둥식 만두를 만들고 있다. 준비해둔 재료가 언제나 당일 소진이 될 정도로 인기가 높다.\n",
    "phone": "051-332-1261",
    "type": "restaurant"
  },
  {
    "name": "굿모닝홍콩",
    "district": "부산진구",
    "lat": 35.158752,
    "lng": 129.06444,
    "address": "부산진구 서전로 47번길 19 1층",
    "description": "홍콩인들이 아침식사를 한다는 차찬텡 컨셉의 식당으로, 식사와 디저트가 함께 준비되어 있는 곳이다. 한국인의 입맛에 맞춘 적당한 향신료로 부담 없이 먹을 수 있는 것이 특징이다.\n",
    "phone": "0507-1334-3724",
    "type": "restaurant"
  },
  {
    "name": "반핀 서면전포점",
    "district": "부산진구",
    "lat": 35.15839,
    "lng": 129.06279,
    "address": "부산진구 동천로 108번길 9",
    "description": "대만음식을 베이스로한 캐주얼한 메뉴로 젊은 층에 인기 높은 이 곳은 비장탄 숯불을 사용한 덮밥이 인기메뉴이다. 간단한 요리메뉴도 있어 식사나 맥주와도 잘 어울린다.\n",
    "phone": "0507-1498-6223",
    "type": "restaurant"
  },
  {
    "name": "복성반점",
    "district": "사하구",
    "lat": 35.103638,
    "lng": 128.96245,
    "address": "사하구 하신중앙로 289",
    "description": "50여 년간 2대를 이어 운영하고 있는 전통 있는 중식당으로, 유명 TV쇼에 출연하며 더욱 많은 사람들이 찾고 있다. 해산물과 양파가 푸짐하게 올라간 짬뽕이 이곳의 대표메뉴.\n",
    "phone": "051-291-7834",
    "type": "restaurant"
  },
  {
    "name": "부우사안",
    "district": "해운대구",
    "lat": 35.160133,
    "lng": 129.1545,
    "address": "해운대구 해운대해변로209번나길 16",
    "description": "베이징덕으로 유명한 정통중식당으로 조금 특별한 날에 특별한 메뉴를 찾는 사람에게 권할만한 곳이다. 카빙 전 베이징덕을 먼저 보여주고 먹을 수 있게 장만해 주는 것이 재미있다.\n",
    "phone": "051-741-3310",
    "type": "restaurant"
  },
  {
    "name": "산동완탕교자관",
    "district": "동구",
    "lat": 35.119602,
    "lng": 129.04268,
    "address": "동구 중앙대로296번길 11",
    "description": "중국인이 운영하고 있는 이곳은 중국에 있는 식당이 그대로 위치만 옮긴 것 같은 느낌을 준다. 만두를 전문으로 하고 낯선 메뉴와 현지화 되지 않은 중국 본토의 맛을 경험할 수 있는 특별한 식당이다.\n",
    "phone": "070-8240-2385",
    "type": "restaurant"
  },
  {
    "name": "삼형제오리 부산1호점",
    "district": "영도구",
    "lat": 35.09349,
    "lng": 129.03928,
    "address": "영도구 태종로 73번길 23",
    "description": "중국 현지 북경오리 프랜차이즈의 국내 유일 지점으로 숯불에 구운 오리바베큐가 대표메뉴지만, 양갈비살로 만든 양꼬치도 인기 있다. 오리바베큐를 먹기 위해선 예약이 필수다.\n",
    "phone": "051-417-7043",
    "type": "restaurant"
  },
  {
    "name": "동광동 석기시대 본점",
    "district": "중구",
    "lat": 35.106155,
    "lng": 129.03487,
    "address": "중구 동광길 75-1",
    "description": "1987년에 개업한 중국만두전문점으로 맛과 품질에 비해 저렴한 가격의 만두와 오향장육을 만날 수 있다. 가볍게 술 마시기 좋은 곳으로 많은 단골손님이 찾아오는 가게이다.\n",
    "phone": "010-2334-0358",
    "type": "restaurant"
  },
  {
    "name": "칸웨이",
    "district": "강서구",
    "lat": 35.08141,
    "lng": 128.90326,
    "address": "강서구 명지오션시티4로 84 9층",
    "description": "롯데호텔 중식당과 한식당의 책임자로 각종 국제행사를 책임지던 대표가 선보이는 고급 중식레스토랑이다. 가족외식하기 좋으며, 중식코스 요리가 대표메뉴이다.\n",
    "phone": "0507-1308-7173",
    "type": "restaurant"
  },
  {
    "name": "태화반점",
    "district": "남구",
    "lat": 35.13219,
    "lng": 129.11273,
    "address": "남구 분포로 115 힐탑탑플레이스 B동 109호",
    "description": "한국 중화요리와 일본 중화요리를 접목시킨 또 다른 스타일의 중화요리로 케찹소스를 베이스로 한 광동식 탕수육과 일본식 사천식 마파두부가 유명하다.\n",
    "phone": "051-611-6799",
    "type": "restaurant"
  },
  {
    "name": "동화반점",
    "district": "중구",
    "lat": 35.10579,
    "lng": 129.02345,
    "address": "중구 흑교로 75번길 3",
    "description": "1950년 창업한 부산 최초의 중식전문점으로, 1987년 보수동으로 이전했으며 남구 남천동에도 매장을 가지고 있다. \n오랜 시간 꾸준히사랑받아 온 만큼 충분히 보증된 맛을 가지고 있다.\n",
    "phone": "051-253-6661",
    "type": "restaurant"
  },
  {
    "name": "유원",
    "district": "중구",
    "lat": 35.10799,
    "lng": 129.03767,
    "address": "중구 충장대로9번길 29 보전빌딩 지하1층",
    "description": "번화가에서 조금 떨어진 곳 ‘코모도호텔’ 인근에 자리한 이 곳은 언뜻 큰 특징이 없어 보이나, 무려 50여 년간 주방을 지켜온 화교 출신의 오너셰프가 직접 요리하고 있는 중식당이다.\n",
    "phone": "0507-1492-5659",
    "type": "restaurant"
  },
  {
    "name": "문스시",
    "district": "해운대구",
    "lat": 35.17031,
    "lng": 129.16615,
    "address": "부산 해운대구 좌동순환로 43\n",
    "description": "TV프로그램을 통해 소개된 유명 쉐프가 운영하는 일식전문점으로, 기대를 충족하는 수준 있는 요리들과 깔끔하고 세련된 인테리어가 특징이다. 쉐프가 추천하는 음식으로 구성되는 오마카세 스시 코스가 특히 유명하다.\n\n",
    "phone": "051-744-3316",
    "type": "restaurant"
  },
  {
    "name": "원조18번완당",
    "district": "서구",
    "lat": 35.105713,
    "lng": 129.02045,
    "address": "서구 구덕로 238번길 6",
    "description": "1947년부터 3대를 이어 운영 중인 유명한 식당으로 \n1대 창업주가 일본에서 배워온 완당을 한국인의 입맛에 맞게 발전시켰다.\n부산 음식문화의 한 부분을 장식한 유서 깊은 식당이다.\n",
    "phone": "051-256-3391",
    "type": "restaurant"
  },
  {
    "name": "젠스시",
    "district": "해운대구",
    "lat": 35.170803,
    "lng": 129.17145,
    "address": "해운대구 대천로42번길28-5",
    "description": "해운대의 유명 일식전문점으로, 명인 인증서를 받은 오너 쉐프가 운영하며, 주방 분위기가 엄격하고, 위생에 무척 신경을 쓰는 것으로도 유명하다. 열 가지의 초밥과 함께 미소시루, 달걀 찜, 튀김 등으로 구성 된 코스요리가 대표메뉴.\n",
    "phone": "051-746-7456",
    "type": "restaurant"
  },
  {
    "name": "백산키친",
    "district": "동구",
    "lat": 35.13873,
    "lng": 129.06345,
    "address": "동구 조방로14 동일타워",
    "description": "계절재료를 사용해 사시미, 구이, 탕 등 다양한 요리를 만들어내는 일식주점으로\n술을 즐기려 찾았다가 배부르게 식사하게 된다는 무서운 곳이다.\n숙련된 쉐프가 정성껏 준비하는 친절하고 기분 좋은 곳이다.\n",
    "phone": "051-635-8219",
    "type": "restaurant"
  },
  {
    "name": "영변횟집",
    "district": "해운대구",
    "lat": 35.1808,
    "lng": 129.20293,
    "address": "부산 해운대구 송정강변로 15",
    "description": "뼈와 함께 먹는 잘게 썬 세꼬시가 특히 유명한 생선회전문점으로, 도다리, 광어, 우럭, 돌돔, 농어 등 다양한 활어를 철에 따라 즐길 수 있다. 특히 가자미나 광어를 이용한 세꼬시가 인기 메뉴로 회를 주문하면 상을 꽉 채우는 반찬과 해산물 등이 함께 제공된다.\n\n",
    "phone": "051-703-7590",
    "type": "restaurant"
  },
  {
    "name": "팔미초밥",
    "district": "연제구",
    "lat": 35.184906,
    "lng": 129.0818,
    "address": "부산 연제구 월드컵대로 119번길 8\n",
    "description": "부산의 대표적인 일식전문점 중 한 곳으로, 상업지역인 이 지역에서도 손님을 대접하기 좋은 곳으로 유명한 식당이다. 30년 경력의 오너쉐프가 운영하고 있으며, 이 곳의 코스요리는 가격에 비해 높은 만족도를 자랑한다.\n\n",
    "phone": "051-861-7679",
    "type": "restaurant"
  },
  {
    "name": "식당 토성동",
    "district": "서구",
    "lat": 35.097954,
    "lng": 129.02257,
    "address": "부산 서구 구덕로 124번길 27\n",
    "description": "의외의 장소에 자리하고 있는 아담하고 예쁜 인테리어의 덮밥전문점으로, 간단한 음식, 깔끔한 맛, 친절한 서비스로 유명한 곳이다. 모든 음식이 인기메뉴이긴 하지만, 손질과 숙성을 거쳐 부드러운 맛의 한입 스테이크 덮밥이 대표메뉴라고 한다.\n\n",
    "phone": "0507-1394-1425",
    "type": "restaurant"
  },
  {
    "name": "청죽",
    "district": "서구",
    "lat": 35.11293,
    "lng": 129.01305,
    "address": "부산 서구 망양로 23\n",
    "description": "입구까지 이어진 근사한 정원이 멋진 일식코스요리전문점으로, 이 지역에서는 상견례 등격조 있는 모임의 장소로 많이 이용하는 곳이다. 비교적 비싼 가격의 식당이지만, 맛과 서비스 모두 충분히 만족스러운 곳이라고 한다. 일본식코스요리가 대표메뉴.\n\n",
    "phone": "051-247-8555",
    "type": "restaurant"
  },
  {
    "name": "소수인",
    "district": "부산진구",
    "lat": 35.156677,
    "lng": 129.05383,
    "address": "부산진구 가야대로750번길 17",
    "description": "일식을 모티브로 한 새로운 스타일의 요리를 만들고 있는 일본식주점으로 영업을 시작한지 얼마 되지 않아 항상 사람들이 가득한 곳이 되었다. 개성강한 요리들은 술안주로도 식사로도 잘 어울린다.\n",
    "phone": "051-808-4036",
    "type": "restaurant"
  },
  {
    "name": "금랑횟집 광안리본점",
    "district": "수영구",
    "lat": 35.155155,
    "lng": 129.131,
    "address": "광안해변로344번길 17-5, 마린리치건물 6층",
    "description": "수변공원 회센터에 자리한 횟집으로 메인요리인 회와 함께 제공되는 음식들이 다양하고 수준이 높아 회를 즐기지 않는 사람들도 충분히 즐길 만한 곳이다. 광안대교의 전경이 보이는바다풍경으로 유명한 곳이기도 하다.\n",
    "phone": "0507-1400-5209",
    "type": "restaurant"
  },
  {
    "name": "난파센",
    "district": "수영구",
    "lat": 35.14674,
    "lng": 129.11339,
    "address": "남천동로108번길 43",
    "description": "좋은 재료를 직접 손질하고 직접 만든 특제 소스를 사용해 인기 높은 튀김덮밥전문점으로 밥과 어울리는 튀김을 만들기 위해 무척 많은 연구를 한다고 한다. 밥 위에 올려진 갈색의 튀김이 특징적이다.\n\n\n",
    "phone": "0507-1483-0536",
    "type": "restaurant"
  },
  {
    "name": "본참치",
    "district": "중구",
    "lat": 35.10548,
    "lng": 129.03526,
    "address": "중구 해관로73",
    "description": "전국의 참치 매니아들이 찾아오는 유명한 참치전문점으로, 조리명인인 오너쉐프가 운영하고 있는 곳이다. 당일재료는 당일소진하고 있으며, 노인들을 위한 행사를 개최하는 등 지역 사회에 기여하고 있는 식당이기도 하다.\n",
    "phone": "051-463-3737",
    "type": "restaurant"
  },
  {
    "name": "어가초밥",
    "district": "중구",
    "lat": 35.097214,
    "lng": 129.02882,
    "address": "자갈치로 41",
    "description": "부산 최대 수산물시장인 자갈치시장과 인접한 일식전문점으로 빠르게 재료를 공수하여 신선한 음식을 제공하고 있다. 대부분의 좌석이 독립된 룸으로 운영되고 있어 편안하게 식사를 즐길 수 있기도 하다.\n",
    "phone": "051-247-3777",
    "type": "restaurant"
  },
  {
    "name": "삼송초밥 부산남포본점",
    "district": "중구",
    "lat": 35.099678,
    "lng": 129.02986,
    "address": "중구 광복로55번길 13",
    "description": "부산에서 가장 유명한 일식전문점 중 한 곳으로 65년 이상의 역사를 가지고 있으며, 대를 이어 오는 손님들이 이곳의 변치 않는 맛을 보증하고 있다. 특히 김초밥으로 많이 알려져 있기도 한 곳이다.\n",
    "phone": "051-245-7870",
    "type": "restaurant"
  },
  {
    "name": "명송초밥",
    "district": "중구",
    "lat": 35.101738,
    "lng": 129.03586,
    "address": "해관로 32",
    "description": "상업지역인 이 지역에서도 접대나 모임하기 좋은 곳으로 유명한 일식전문점으로, 수준 높은 음식에 어울리는 디테일한 플레이팅이 음식을 더욱 돋보이게 만든다. 2~3시간 숙성한 회를 제공하고 있다.\n",
    "phone": "051-246-1225",
    "type": "restaurant"
  },
  {
    "name": "다께",
    "district": "동구",
    "lat": 35.138863,
    "lng": 129.06076,
    "address": "범일로102번길 12",
    "description": "범일동의 유명 일식전문점으로 오너쉐프가 직접 주재료를 장만하고 있으며, 미리 연락해 두면 원하는 회나 직접 낚시한 생선을 요리해 주기도 한다. 벽면 가득한 유명인들의 사인이 이곳의 맛을 보장하고 있다.\n",
    "phone": "051-631-6890",
    "type": "restaurant"
  },
  {
    "name": "톤쇼우 광안점",
    "district": "수영구",
    "lat": 35.15631,
    "lng": 129.12474,
    "address": "광안해변로279번길 13",
    "description": "오픈 2시간 전부터 대기 줄이 있을 만큼 유명한 돈까스 전문점으로, 두툼하면서도 무척 부드러운 이곳의 돈까스는 참숯으로 훈연하여 놀라운 맛을 선사한다. 기다리는 손님을 위한 배려로 2층에 휴게공간을 운영하고 있기도 하다.\n\n\n",
    "phone": "010-5835-7978",
    "type": "restaurant"
  },
  {
    "name": "경찰서옆초밥집",
    "district": "부산진구",
    "lat": 35.159702,
    "lng": 129.05392,
    "address": "부산광역시 부산진구 부전로 92 1층",
    "description": "18년 경력의 오너 쉐프가 모든 재료를 직접 만들고 손질한다. 매일 5시간씩 정성껏 준비한 재료와 알찬 구성 그리고 보증된 솜씨로 만들어 내는 초밥은 당신을 실망시키지 않는다.\n",
    "phone": "0507-1408-3189",
    "type": "restaurant"
  },
  {
    "name": "고옥",
    "district": "수영구",
    "lat": 35.143585,
    "lng": 129.10974,
    "address": "수영구 광남로 6 ",
    "description": "부산에서 히츠마부시를 유행시킨 유명한 곳으로, 장어는 숯불을 사용하며 굽고 그날 사용할 장어가 떨어지면 조기 마감한다. 예약을 받지 않고 입점순서대로 식사를 제공한다.\n",
    "phone": "0507-1360-1638",
    "type": "restaurant"
  },
  {
    "name": "글라스앤보틀",
    "district": "연제구",
    "lat": 35.188755,
    "lng": 129.0872,
    "address": "연제구 쌍미천로 179-1",
    "description": "일본의 골목길 비스트로를 연상시키는 분위기의 아담한 와인바로 부부가 함께 운영하고 있는 곳으로, 일식 기반의 캐주얼한 요리들이 와인과 무척 잘 어울린다. 테이블 수가 작아 예약이 필수다.\n",
    "phone": "0507-1407-8598",
    "type": "restaurant"
  },
  {
    "name": "교토돈부리 본점",
    "district": "남구",
    "lat": 35.137672,
    "lng": 129.10362,
    "address": "남구 용소로13번길 61 아침햇살 102동 103호",
    "description": "제주산 흑돼지로 만든 돈카츠와 생연어를 숙성시킨 연어뱃살덮밥으로 인기 있는 일식덮밥전문점으로, 무척 높은 수준의 음식을 만날 수 있다. 재료손질과 사용하는 소스 등도 모두 직접 장만하고 있다.\n\n※매장사정으로 당분간 휴무\n",
    "phone": "0507-1443-1919",
    "type": "restaurant"
  },
  {
    "name": "나가하마만게츠",
    "district": "해운대구",
    "lat": 35.16669,
    "lng": 129.15746,
    "address": "해운대구 우동1로 57 대영빌딩1층",
    "description": "해리단길의 유명한 일본라멘전문점으로 후쿠오카의 유명한 라멘전문점의 유일한 한국분점이다. 최근에는 해운대로 관광 온 젊은 층의 필수코스가 되어가고 있어 오픈과 동시에 웨이팅이 시작되는 곳이기도 하다.\n",
    "phone": "051-731-0886",
    "type": "restaurant"
  },
  {
    "name": "노는바다",
    "district": "수영구",
    "lat": 35.140026,
    "lng": 129.10835,
    "address": "수영구 황령대로 481번길 39 1층",
    "description": "해삼내장을 손질한 고노와다로 유명한 일본식주점으로 이곳의 고노와다 사시미를 경험해보기 위해 먼 곳에서도 찾아오는 사람도 많다고 한다. 대기하는 사람이 많아 두 시간 이용 제한이 있다.\n",
    "phone": "051-992-3838",
    "type": "restaurant"
  },
  {
    "name": "동경밥상",
    "district": "수영구",
    "lat": 35.148396,
    "lng": 129.11385,
    "address": "수영구 남천바다로 34-6",
    "description": "240여 년의 긴 역사를 가진 일본의 장어요리전문점 쥬바코에서 오랜 수련을 거친 오너쉐프가 쥬바코 스타일의 정통방식으로 만든 장어구이를 선보이는 곳으로, 외관부터 내부까지 일본에 온 듯한 분위기를 가지고 있다\n",
    "phone": "0507-1320-1428",
    "type": "restaurant"
  },
  {
    "name": "슌",
    "district": "기장군",
    "lat": 35.25241,
    "lng": 129.217,
    "address": "기장군 기장읍 차성동로 163",
    "description": "무려 25년 경력의 셰프가 갓 만든 초밥이 레일위에 놓여있는 회전초밥전문점인 이곳은 좌천 쌀을 사용하며 초밥의 가격은 모두 동일하다. 먹고 싶은걸 말하면 그 즉시 만들어주기도 한다.\n",
    "phone": "051-724-3737",
    "type": "restaurant"
  },
  {
    "name": "스시미르네 본점",
    "district": "해운대구",
    "lat": 35.17129,
    "lng": 129.17677,
    "address": "해운대구 세실로 75 일진빌딩 1층 100호",
    "description": "초밥의 대중화를 이끈 초밥전문점 중 한 곳인 이곳은 초심을 잃지 않고 음식을 만든다는 철학으로 한국인기브랜드 대상을 수상한 곳이기도 하다. 색다른 모습을 가진 물회가 특징적인 메뉴이다.\n",
    "phone": "051-703-5623",
    "type": "restaurant"
  },
  {
    "name": "스시심 타카이",
    "district": "금정구",
    "lat": 35.230793,
    "lng": 129.08801,
    "address": "금정구 부산대학로 29 네오스퀘어 2층",
    "description": "점심, 저녁 각각 두 차례씩 예약제로 운영하는 초밥전문점으로 숙련된 셰프가 제공하는 오마카세는 맛과 가격 모두를 만족시킨다고 한다. 예약에만 3개월이 걸릴 정도로 높은 인기를 자랑하는 곳.\n",
    "phone": "0507-1335-3576",
    "type": "restaurant"
  },
  {
    "name": "야스마루 쇼쿠도",
    "district": "부산진구",
    "lat": 35.159283,
    "lng": 129.06197,
    "address": "부산진구 중앙대로756번길 24",
    "description": "입맛 없는 여름에 맛있게 먹을 수 있는 음식을 만들려고 했다지만 계절에 관계없이 항상 긴 줄이 서있는 곳으로 독특한 모습의 파랑국수가 대표메뉴. 간판 없는 인기식당으로도 유명하다.\n",
    "phone": "010-7144-7600",
    "type": "restaurant"
  },
  {
    "name": "중앙모밀",
    "district": "중구",
    "lat": 35.101845,
    "lng": 129.0353,
    "address": "중구 중앙대로 49번길 9-1 ",
    "description": "1956년에 개업하여 60여 년의 역사를 가진 우동·메밀국수전문점으로 부산의 기성세대들에게는 특별한 날 부모님과 함께 왔던 어린 시절의 추억이 있는 곳이다. 3대가 함께 식사하는 모습을 자주 볼 수 있는 곳이기도 하다.\n",
    "phone": "051-246-8686",
    "type": "restaurant"
  },
  {
    "name": "킹콩스시",
    "district": "수영구",
    "lat": 35.1689,
    "lng": 129.11972,
    "address": "수영구 구락로 8-4",
    "description": "가격대비 만족도가 무척 높다는 초밥전문점으로 합리적인 가격으로 신선하고 좋은 구성의 초밥을 제공하고 있다. 포장이나 배달주문이 많은 곳이기도 하다.\n",
    "phone": "0507-1348-5036",
    "type": "restaurant"
  },
  {
    "name": "타이가 텐푸라",
    "district": "해운대구",
    "lat": 35.164764,
    "lng": 129.1584,
    "address": "해운대구 우동1로 38번가길 15",
    "description": "부산에 텐동유행을 불러온 가게 중 하나로, 후쿠오카의 유명 텐동전문점인 텐푸라타카오에서 직접 전수 받은 레시피와 소스로 완성도 높은 텐동을 선보인다.주문과 동시에 조리가 시작된다.\n",
    "phone": "051-731-1914",
    "type": "restaurant"
  },
  {
    "name": "톤쇼우 부산대점",
    "district": "금정구",
    "lat": 35.230446,
    "lng": 129.08427,
    "address": "금정구 금강로 247-10",
    "description": "유명한 돈카츠전문점 톤쇼우의 본점으로, 좋은 재료를 선별해 저온, 고온, 레스팅, 숯불구이의 네 단계의 조리를 거쳐 만들어진 돈카츠는 놀라운 맛을 선사한다.\n",
    "phone": "010-5685-5482",
    "type": "restaurant"
  },
  {
    "name": "고향연화",
    "district": "기장군",
    "lat": 35.21732,
    "lng": 129.22461,
    "address": "기장군 기장읍 연화길 33-8",
    "description": "따뜻하고 밝은 분위기의 식당으로 휴양지에서나 볼 수 있을 것 같은 건물외관이 인상적이다. \n국내산 특등급 돈원육으로 만든 돈까스와 당일 배송된 완도 전복으로 만든 전복리조또로 유명하다.\n",
    "phone": "051-724-9005",
    "type": "restaurant"
  },
  {
    "name": "다이도코로 광안리본점",
    "district": "수영구",
    "lat": 35.1466,
    "lng": 129.11255,
    "address": "수영구 남천동로 108번길 27 2층",
    "description": "일본 가정식을 만드는 인기 있는 식당으로 흔히 보기 힘든 일본 현지의 메뉴들을 선보이고 있다.\n인기에 그치지 않고 메뉴 개발에도 힘쓰고 있는 중이다.\n",
    "phone": "070-8631-8402",
    "type": "restaurant"
  },
  {
    "name": "샤브남바완",
    "district": "수영구",
    "lat": 35.153236,
    "lng": 129.12465,
    "address": "수영구 민락수변로29 바다마루빌딩 1층",
    "description": "국내 최초로 사케를 육수로 샤브샤브를 만든 곳. \n소고기가 아닌 돼지고기를 사용하는 것이 특징인데, 일반돼지고기가 아닌버크셔K, YBD등의 브랜드 육을 사용한다고 한다.\n",
    "phone": "0507-1331-4599",
    "type": "restaurant"
  },
  {
    "name": "제로베이스",
    "district": "수영구",
    "lat": 35.15741,
    "lng": 129.12096,
    "address": "수영구 민락로33번길 17 202호",
    "description": "제철재료를 이용한 오마카세 코스를 선보이는 감각적인 일식당으로, 매월 변화되는 코스를 선보인다. \n당일 수산시장의 엄선된 재료와 부산의 식재료를 사용하여 요리한다.\n",
    "phone": "070-8803-0318",
    "type": "restaurant"
  },
  {
    "name": "김정연분식 면옥향천",
    "district": "해운대구",
    "lat": 35.170124,
    "lng": 129.13939,
    "address": "해운대구 해운대로 383번길 26",
    "description": "우2동 재래시장 입구에 자리한 이곳은 좋은 메밀을 사용하여, 맷돌과 제분기에 곱게 말아 만든 면을 바로 내놓는다. \n소스도 직접 만들며, 곁들일 수 있는 고로케 등도 유명하다.\n",
    "phone": "051-747-4601",
    "type": "restaurant"
  },
  {
    "name": "모리",
    "district": "해운대구",
    "lat": 35.160202,
    "lng": 129.16658,
    "address": "해운대구 해운대해변로 298번길 24 \n팔레드시즈 2층2-4호",
    "description": "들어서는 순간 배려와 환대를 느낄 수 있는 이 곳은 매일 수산시장에서 직접 공수한 신선한 식자재로 준비한 제철음식을 가이세키 코스요리로 만날 수 있는 곳이다. \n",
    "phone": "051-731-9889",
    "type": "restaurant"
  },
  {
    "name": "쇼진",
    "district": "해운대구",
    "lat": 35.163307,
    "lng": 129.1596,
    "address": "해운대구 구남로 9, 라마다앙코르호텔 214호",
    "description": "계절 식재료를 이용한 오마카세 코스를 선보이는 곳으로 콜키지가 가능하고, 룸이 있어 더프라이빗한 식사가 가능하다. 고급스러운 카이세키를 경험할 수 있는 곳.\n",
    "phone": "0507-1354-8060",
    "type": "restaurant"
  },
  {
    "name": "우봉 샤브 청사포점",
    "district": "해운대구",
    "lat": 35.160713,
    "lng": 129.19269,
    "address": "해운대구 청사포로 127",
    "description": "최상급(1++)한우만 사용하여 만든 프리미엄샤브샤브로 특이하게도 종이냄비를 사용하여 조리한다. \n나오는 음식과 눈에 보이는 모든 것이 정갈하고 깔끔한 곳이다.\n",
    "phone": "0507-1349-9256",
    "type": "restaurant"
  },
  {
    "name": "하레마",
    "district": "해운대구",
    "lat": 35.157204,
    "lng": 129.14482,
    "address": "해운대구 마린시티2로 33 두산 위브더제니스 지하 1층 106호",
    "description": "프라이빗한 분위기에서 오마카세 코스를 즐길 수 있는 곳으로 디너는 두 시간으로 나누어져 100%예약제로 운영되고 있다. \n고급스럽고 깔끔한 분위기의 식당.\n",
    "phone": "0507-1354-6558",
    "type": "restaurant"
  },
  {
    "name": "스시시안",
    "district": "해운대구",
    "lat": 35.167683,
    "lng": 129.13104,
    "address": "해운대구 센텀1로 9 E동상가 2층 210호",
    "description": "붉은식초를 이용한 샤리로 기름진 생선이나 등푸른 생선과 궁합이 좋은 스시집. 오마카세 수준의 스시를 비교적 저렴한 가격으로 만날 수 있으며, 예약제로만 운영하고 있다.\n",
    "phone": "051-611-2684",
    "type": "restaurant"
  },
  {
    "name": "쥬가",
    "district": "해운대구",
    "lat": 35.165016,
    "lng": 129.15915,
    "address": "해운대구 우동1로20번길 53, 2층",
    "description": "다년간 일본교토에서 가이세키요리를 수련한 오너와 오사카출신 일본인 요리사 부부가 누구나 편하게 즐길 수 있는 오사카의 대중음식을 만들고 있는 해리단길의 인기가게.\n",
    "phone": "0507-1364-3516",
    "type": "restaurant"
  },
  {
    "name": "쿠지라멘",
    "district": "해운대구",
    "lat": 35.166203,
    "lng": 129.16014,
    "address": "해운대구 우동2로 17",
    "description": "라멘이라면 대부분 진한 국물의 돈코츠라멘을 떠올리지만 이 곳은 맑은 국물의 시오라멘과 쇼유라멘 그리고 아부라소바를 만날 수 있는 곳이다. 칼국수처럼 다소 두툼한 면이 매력적인 마니아층이 단단한 가게다.\n",
    "phone": "070-4795-7214",
    "type": "restaurant"
  },
  {
    "name": "고등어연구소 본점",
    "district": "중구",
    "lat": 35.104816,
    "lng": 129.03603,
    "address": "중구 중앙대로 79-1",
    "description": "다양한 연구를 통하여 고등어의 비린맛을 완벽하게 제거한 이 곳은 일식베이스의 고등어요리를 제공하는 곳으로, 고태솥밥, 고등어온소바, 고등어봉초밥 등 다채로운 고등어요리가 준비되어 있다.\n",
    "phone": "0507-1428-0048",
    "type": "restaurant"
  },
  {
    "name": "야스마루 닌니쿠",
    "district": "부산진구",
    "lat": 35.15606,
    "lng": 129.06438,
    "address": "부산진구 서전로38번길 35-14",
    "description": "입맛 없는 여름에 맛있게 먹을 수 있는 음식을 만들려고 했다지만 계절에 관계없이 항상 긴 줄이 서있는 곳으로 독특한 모습의 파랑국수가 대표메뉴.간판 없는 인기식당으로도 유명하다.\n",
    "phone": "010-9238-0508",
    "type": "restaurant"
  },
  {
    "name": "지즈",
    "district": "부산진구",
    "lat": 35.15622,
    "lng": 129.06595,
    "address": "부산진구 서전로 58번길 34-1, 1층",
    "description": "작은 골목안에 자리한 이 곳은 양식적인 요소를 적용한 일본식 돈카츠를 만드는 곳으로, 지저스의 줄임말인 지즈라는 가게명처럼 첫 입에 감탄을 할 수 있는 음식을 목표로 한다고 한다\n",
    "phone": "0507-1485-1331",
    "type": "restaurant"
  },
  {
    "name": "순사이쿠보",
    "district": "북구",
    "lat": 35.240913,
    "lng": 129.01465,
    "address": "북구 양달로 4번길 17",
    "description": "나고야식 장어덮밥인 히츠마부시 전문점으로 최고급 생물 풍천장어만 사용한다. 특제소스를 발라가며 전통방식으로 정성껏 구운 장어와 함께 아이가 즐길 수 있는 메뉴도 준비되어 있다. \n",
    "phone": "051-365-2959",
    "type": "restaurant"
  },
  {
    "name": "야키토리 백탄",
    "district": "수영구",
    "lat": 35.15614,
    "lng": 129.1215,
    "address": "수영구 민락로13번길 21, 2층",
    "description": "모든 꼬치는 매일 아침 들어온 생닭을 직접 발골하여 당일생산 당일판매의 원칙으로 제공하는 야키토리전문점으로 코스주문 후 단품을 주문하는 방식이다. 잘 구워진 꼬치를 다양한 방법으로 즐길 수 있다.\n",
    "phone": "0507-1332-6043",
    "type": "restaurant"
  },
  {
    "name": "야키토리 해공",
    "district": "수영구",
    "lat": 35.158234,
    "lng": 129.1271,
    "address": "수영구 민락본동로 19번길 30-5, 1층",
    "description": "고급 일식집같은 분위기의 이곳은 토종닭을 직접 발골하여 정성스레 구운 야키토리를 제공하고 있는 곳으로, 당일에 잡아서 숯불에 구운 곰장어도 인기있는 유니크한 곳이다.\n",
    "phone": "051-758-8333",
    "type": "restaurant"
  },
  {
    "name": "으뜸이로리바타",
    "district": "수영구",
    "lat": 35.141987,
    "lng": 129.10915,
    "address": "수영구 수영로408번길 20, 1층",
    "description": "일본식 화로 ‘이로리’에서 굽히고 있는 생선이 이국적인 분위기를 더해주고 있는 이곳은 화로를 이용한 숯불구이를 중심으로 한 다양한 일식 코스 요리를 만날 수 있는 곳이다. 예약제로 운영되고 있다.\n",
    "phone": "0507-1460-4790",
    "type": "restaurant"
  },
  {
    "name": "조이풀조이풀(골드핀치by조이풀조이풀)",
    "district": "수영구",
    "lat": 35.157604,
    "lng": 129.1274,
    "address": "수영구 민락본동로11번길 21, 1층",
    "description": "10명 정도가 앉을 수 있는 일본식 다찌바에는 계절을 담은 제철 생선 요리들과 잘 보기 힘든 일본풍 마치츄카 요리가 올려진다.  분위기와 음식 모두 즐거운 좋은 주점이다.\n",
    "phone": "0507-1342-3814",
    "type": "restaurant"
  },
  {
    "name": "포에버얌 부산기장점",
    "district": "기장군",
    "lat": 35.282776,
    "lng": 129.2583,
    "address": "일광면 문오성길 43",
    "description": "현지 풍 인테리어의 매장으로 들어오면 동남아의 어촌마을에 있는 느낌이 드는 이곳은 육수와 소스 양념 등을 모두 직접 만들고 있는 베트남음식전문점. 아늑한 분위기로 연인과 가족들이 많이 찾는 곳이기도 하다.\n",
    "phone": "0507-1311-3645",
    "type": "restaurant"
  },
  {
    "name": "양귀빈 식당 3호점",
    "district": "수영구",
    "lat": 35.163265,
    "lng": 129.116,
    "address": "수영로646번길 15",
    "description": "아직은 흔하게 보기 힘든 양고기구이전문점으로 카페를 해도 어울릴만한 인테리어가 인상적이다. 숙련된 점원이 고기를 구워주는 이곳은 일식을 전공한 오너가 많은 공부를 통해 질 좋은 양고기를 장만한다고 한다.\n\n\n",
    "phone": "0507-1363-0840",
    "type": "restaurant"
  },
  {
    "name": "타이빈",
    "district": "동래구",
    "lat": 35.216263,
    "lng": 129.0773,
    "address": "동래구 금강로73번길 12",
    "description": "태국 정부로부터 Thai select 최고등급인 signature 인증을 받았다는 태국음식전문점으로, 태국인요리사가 준비하는 정통태국음식이 준비되어 있다. 태국으로 여행 온 기분을 느끼게 해주는 인테리어가 무척 인상적인 곳이다.\n",
    "phone": "051-558-8885",
    "type": "restaurant"
  },
  {
    "name": "오공떵번",
    "district": "사하구",
    "lat": 35.105663,
    "lng": 128.9738,
    "address": "승학로 50, 1층",
    "description": "한국에서 흔하게 맛볼 수 있는 쌀국수는 ‘포’라는 하노이식 쌀국수라면, 이곳은 ‘후띠우’라는 호치민식 쌀국수를 만들고 있다. ‘포’와는 달리 향이 강하지 않아 누구나 쉽게 즐길 수 있는 맛이다. \n",
    "phone": "051-292-4441",
    "type": "restaurant"
  },
  {
    "name": "부산대 포맨티코 본점",
    "district": "금정구",
    "lat": 35.22843,
    "lng": 129.08781,
    "address": "금정구 장전로 12번길 16",
    "description": "제대로 된 맛이 날 수 있게 사골 뼈를 24시간 이상 끓이고, 매일 아침 정성껏 재료를 준비한다. 정성들여 준비해야 좋은 맛이 나는 것은 어느 나라 음식이건 마찬가지다. 그간 베트남음식에 좋은 기억이 없던 사람들에게 먼저 추천해주고 싶은 곳.\n",
    "phone": "051-583-2682",
    "type": "restaurant"
  },
  {
    "name": "어밤부",
    "district": "해운대구",
    "lat": 35.17372,
    "lng": 129.19667,
    "address": "해운대구 송정광어골로 87 1층",
    "description": "태국풍의 라탄 조명과 송정 해수욕장의 멋진 풍경이 어우러진 태국음식전문점으로, 다양한 태국 음식들과 함께 와인 등의 주류와 다양한 음료도 준비되어 있다.\n",
    "phone": "0507-1366-8183",
    "type": "restaurant"
  },
  {
    "name": "달타이",
    "district": "해운대구",
    "lat": 35.158108,
    "lng": 129.18246,
    "address": "해운대구 달맞이길 193 1층",
    "description": "10여 년을 운영해오며 달맞이길의 한 풍경이 되어가는 태국음식점으로, 전원 태국인 셰프로 구성된 주방에서 현지공수 또는 전용농장 계약 재배한 식재료를 사용하여 음식을 만들고 있다.\n",
    "phone": "051-741-1122",
    "type": "restaurant"
  },
  {
    "name": "란아한",
    "district": "부산진구",
    "lat": 35.15837,
    "lng": 129.06421,
    "address": "부산진구 서전로37번길 14-1",
    "description": "태국거리의 가게를 그대로 옮겨온 듯한 이곳은 태국의 호텔셰프 출신 셰프가 정통 태국요리를 만들고 있는 곳으로, 일체의 타협없는 현지의 맛을 구현하고 있다\n",
    "phone": "0507-1412-9983",
    "type": "restaurant"
  },
  {
    "name": "바오하우스",
    "district": "부산진구",
    "lat": 35.154896,
    "lng": 129.06335,
    "address": "부산진구 서전로 38번길 62-9",
    "description": "대만식요리를 바오하우스만의 방식으로 해석하여 제공하는 캐주얼식당으로 바오, 우육면 등 대만의 대표음식들을 만날 수 있다. 음식이 신속하게 제공되는 것으로도 유명하다\n",
    "phone": "0507-1324-1031",
    "type": "restaurant"
  },
  {
    "name": "이재모피자 본점",
    "district": "중구",
    "lat": 35.102104,
    "lng": 129.0306,
    "address": "중구 광복중앙로 31",
    "description": "30여년을 운영 중인 피자전문점으로 부산에서 피자가 대중화된 시기를 생각하면 상당한 전통을 자랑하는 유명한 곳이다. 국내산 임실치즈를 사용한 푸짐한 토핑의 피자가 특징이며, 변함없는 맛을 지키고 있다.\n",
    "phone": "051-255-9494",
    "type": "restaurant"
  },
  {
    "name": "르꽁비브",
    "district": "해운대구",
    "lat": 35.176777,
    "lng": 129.12552,
    "address": " 해운대구 센텀북대로 60 센텀아이에스타워 110호",
    "description": "부산의 유명베이커리인 옵스에서 런칭한 전통 프렌치 레스토랑. 프랑스인들에게 프렌치 퀴진을 가르쳐온 셰프의 전통 현지 요리법으로 사계절 제철 식재료를 사용한 다양한 프렌치코스요리를 선보이고 있다.\n",
    "phone": "0507-1430-3693",
    "type": "restaurant"
  },
  {
    "name": "이층집 564-9",
    "district": "남구",
    "lat": 35.13028,
    "lng": 129.10002,
    "address": "남구 유엔로217, 2층(대연동)",
    "description": "심플하고 모던한 인테리어가 인상적인 경양식전문식당으로, 등심 돈가스는 고소한 브로콜리 크림스프와 신선한 생 등심 돼지고기 커틀렛과 계절 샐러드가 함께 나온다. 바삭한 돈가스와 특제소스의 밸런스가 훌륭하다.\n\n",
    "phone": "051-612-5649",
    "type": "restaurant"
  },
  {
    "name": "방코",
    "district": "강서구",
    "lat": 35.11546,
    "lng": 128.92226,
    "address": "강서구 새진목길 51, 1,2층",
    "description": "특이한 외관의 이 건물은 화덕에 구운 피자와 파스타를 만드는 곳이다.\n신선한 재료와 새로운 조리법을 사용하여 풍부하고 담백한 맛을 내는 것이 특징이다.\n트러플로 향을 낸 피자와 블루치즈를 사용한 피자가 대표메뉴이다.\n",
    "phone": "051-271-2068",
    "type": "restaurant"
  },
  {
    "name": "다이닝센 부산본점",
    "district": "남구",
    "lat": 35.124435,
    "lng": 129.11235,
    "address": "부산 남구 용호로 88 3층,4층",
    "description": "패밀리레스토랑 다이닝센은 직접 만드는 소스들을 사용하고, 비교적 저렴한 가격에 비해 높은 수준의 음식들이 제공된다. 행사를 위한 시설과 공간도 잘 준비되어 있다.\n",
    "phone": "0507-1319-8833",
    "type": "restaurant"
  },
  {
    "name": "디에이블 송도점",
    "district": "서구",
    "lat": 35.076706,
    "lng": 129.01715,
    "address": "부산 서구 충무대로 47 3층 \n",
    "description": "유명한 양식레스토랑인 디에이블의 분점으로, 가게 전체에서 보이는 멋진 바다풍경 속에서 특별한 식사를 할 수 있는 곳이다. 시그니처 메뉴인 피자는 페스츄리 도우를 사용해 촉촉한 것이 특징이며, 특제소스를 사용해 매콤하면서 고소한 파스타도 인기 있다.\n\n",
    "phone": "0507-1433-9177",
    "type": "restaurant"
  },
  {
    "name": "버거샵 서면",
    "district": "부산진구",
    "lat": 35.15856,
    "lng": 129.06306,
    "address": "부산진구 동천로 108번길 11",
    "description": "직접 손질하는 1등급 한우 패티와 매일 아침 구운 브리오슈 번으로 만드는 수제버거전문점으로, 외국인 손님들도 많이 찾는 곳이다. 독특한 인테리어를 즐기며 다양한 소품들도 구입하고 볼 수 있는 가게이다.\n",
    "phone": "051-911-4960",
    "type": "restaurant"
  },
  {
    "name": "영도우",
    "district": "영도구",
    "lat": 35.08781,
    "lng": 129.06128,
    "address": "영도구 조내기로5번길 2",
    "description": "부산항이 한눈에 들어오는 장소에 위치한 피자전문점으로 자체개발한 도우로 만든 테두리가 없는 사각형의 디트로이트식 피자가 대표메뉴이다. 임실치즈를 아낌없이 사용하여 풍부한 치즈의 맛을 즐길 수 있다\n",
    "phone": "070-4659-0169",
    "type": "restaurant"
  },
  {
    "name": "로얄경양식&스테이크 광안점",
    "district": "수영구",
    "lat": 35.153294,
    "lng": 129.12462,
    "address": "민락수변로 29, 2층 201~203호",
    "description": "광안리의 바다풍경을 즐기며 식사를 할 수 있는 패밀리레스토랑으로 가격에 비해 높은 수준의 음식과 서비스를 제공하고 있다. 조리하는 모습을 직접 볼 수 있는 오픈주방을 운용하고있으며, 바다를 충분히 즐길 수 있는 실내 환경이 인상적이다.\n\n\n",
    "phone": "0507-1334-8718",
    "type": "restaurant"
  },
  {
    "name": "솔리보",
    "district": "기장군",
    "lat": 35.26711,
    "lng": 129.23145,
    "address": "일광면 해송4로 21, 201호",
    "description": "스승에게 전수받아 계승·발전시킨 토마토 소스가 특기라는 젊은 오너쉐프는, 스테이크에 쓰는 고기도 직접 정육하여 8시간 이상의 수비드 과정을 거쳐 만들고 있다. 햇살이 들어오는 단정한 인테리어의 공간이 이름처럼 무척 따듯하게 느껴지는 곳이다.\n\n",
    "phone": "0507-1420-4401",
    "type": "restaurant"
  },
  {
    "name": "고민끝에여기",
    "district": "동구",
    "lat": 35.112698,
    "lng": 129.03706,
    "address": "대영로239번길 12, 1층",
    "description": "향이 강한 멕시코음식을 한국인의 입맛에 맞게 만들어내는 이곳은 매일 신선한 재료를 새로 준비하고, 새우를 주재료로 한 요리들이 많다. 고민 끝에 가게자리를 정했다는 의미의 이름이 무척 독특하다.\n",
    "phone": "0507-1314-1592",
    "type": "restaurant"
  },
  {
    "name": "지에이비148",
    "district": "수영구",
    "lat": 35.145763,
    "lng": 129.11497,
    "address": "광안해변로 122, 삼익비치B상가 2층",
    "description": "연인들이 많이 찾는다는 다이닝펍으로 깔끔한 실내와 야외테라스가 인상적이다. 이곳의 시그니처 메뉴인 스테이크는 250도로 달궈진 돌 위에 올려져 레어부터 웰던까지 모든 굽기의 스테이크를 맛볼 수 있어 인기 있다.\n\n*테라스 반려동물 동반 가능 (실내 애견동반 불가)\n",
    "phone": "010-8259-1480",
    "type": "restaurant"
  },
  {
    "name": "그라치에",
    "district": "영도구",
    "lat": 35.089043,
    "lng": 129.06154,
    "address": "영도구 청학동로 12",
    "description": "모던한 인테리어의 작고 예쁜 이탈리안 레스토랑으로 많은 사람들이 이태리음식을 쉽게 접하길 바라는 마음을 담아 운영하고 있다고 한다. 특히, 이곳의 감자뇨끼는 손님들이 추천하는 메뉴이다.\n",
    "phone": "0507-1392-6860",
    "type": "restaurant"
  },
  {
    "name": "밀보스79",
    "district": "동래구",
    "lat": 35.2058,
    "lng": 129.08028,
    "address": "명륜로129번나길 11  ",
    "description": "캐주얼한 분위기의 실내가 먼저 눈에 들어오는 이곳은, 파스타나 피자 등의 메뉴와 함께 술을 즐길 수 있는 다이닝펍으로, 비교적 부담 없는 가격으로 좋은 시간을 보낼 수 있는 곳이다. 직접 만든 면과 소스를 사용한 파스타가 특히 맥주와 어울린다고 한다.\n",
    "phone": "0507-1341-8568",
    "type": "restaurant"
  },
  {
    "name": "1966정원 천성항점",
    "district": "강서구",
    "lat": 35.028156,
    "lng": 128.81578,
    "address": "강서구 가덕해안로 787-1 1,2층",
    "description": "조용한 어촌마을에 자리한 양식당으로 아담한 정원과 엔틱풍의 인테리어가 돋보인다. 직접 구운 번으로 만든 수제버거가 대표메뉴이며 필라프, 샐러드 외에 다양한 음료도 준비되어 있는 곳.\n",
    "phone": "051-971-9925",
    "type": "restaurant"
  },
  {
    "name": "명란브랜드연구소",
    "district": "동구",
    "lat": 35.1171,
    "lng": 129.03499,
    "address": "동구 영초윗길 22-1",
    "description": "동구 초량이바구길에 위치한 이곳은 5층 건물 전체가 명란과 관련된 이야기로 가득한 곳이다. 3층과 4층이 카페로 이용되는 곳으로 명란을 소재로 한 음식들을 만날 수 있다. 주말에는 음료만 판매한다고 하니 참고하자.\n",
    "phone": "051-463-9182",
    "type": "restaurant"
  },
  {
    "name": "버거인뉴욕",
    "district": "해운대구",
    "lat": 35.16093,
    "lng": 129.16469,
    "address": "해운대구 해운대해변로298번길 9",
    "description": "엄선된 1등급 한우로 만든 패티와 버터향 가득한 브리오슈 번을 매일 만들어 뉴욕 본토의 맛에 가장 가까운 햄버거를 만들고 있다. 가게의 외관도 내부도 마치 뉴욕에 온 듯한 느낌을 주는 곳이다.\n",
    "phone": "051-743-0144",
    "type": "restaurant"
  },
  {
    "name": "쉐프리",
    "district": "해운대구",
    "lat": 35.159615,
    "lng": 129.15382,
    "address": "해운대구 해운대해변로209번길 13 바게트호텔 3층",
    "description": "화려한 경력의 오너쉐프가 운영하는 이탈리안 레스토랑으로 와인과도 잘 어울리는 요리들을 만날 수 있다. 예쁜 모습의 음식들이 많이 유행하고 있지만 역시 음식의 본질은 맛이다.\n",
    "phone": "051-757-6127",
    "type": "restaurant"
  },
  {
    "name": "스톤스트리트",
    "district": "중구",
    "lat": 35.102036,
    "lng": 129.03119,
    "address": "부산 중구 용두산길 12 1층",
    "description": "캐주얼한 화덕피자와 파스타가 인기 높은 곳으로 음식에 사용되는 리코타 치즈는 매일 직접 만든다고 한다. 시그니처 메뉴는 난과 함께 제공되는 청포도 샐러드인데 이곳의 단골들이 강력하게 추천하는 메뉴이다.\n",
    "phone": "051-254-7736",
    "type": "restaurant"
  },
  {
    "name": "음주양식당 오스테리아 어부",
    "district": "부산진구",
    "lat": 35.153934,
    "lng": 129.06258,
    "address": "부산진구 동천로58 ",
    "description": "한국인에게는 다소 생소한 맛일지라도 이탈리아의 맛을 좋아하는 사람들을 위해 이탈리아 현지의 맛을 기준으로 조리한다는 이곳. 이곳은 부산이지만 이 공간만큼은 분명히 이탈리아다.\n",
    "phone": "051-802-8858",
    "type": "restaurant"
  },
  {
    "name": "팔레트",
    "district": "남구",
    "lat": 35.131638,
    "lng": 129.11977,
    "address": "부산 해운대구 달맞이길65번길 154 3층",
    "description": "호주에서 7년간 여러 레스토랑 경험을 살린 김재훈셰프의 창의적이고 다양한 식재료의 조합을 바탕으로 하는 다이닝레스토랑. \n광안대교뷰와 함께 코스요리와 와인페어링이 가능한 곳이다.\n",
    "phone": "051-626-2364",
    "type": "restaurant"
  },
  {
    "name": "공담 파스타",
    "district": "동래구",
    "lat": 35.215736,
    "lng": 129.08414,
    "address": "부산 동래구 명륜로250번길 2 1층",
    "description": "서울의 핫 플레이스에서 활동하던 셰프들의 트렌디한 요리를 만날 수 있는 곳으로 생면을 사용한 이태리 정통 파스타와 72시간 숙성, 발효한 화덕 피자를 만날 수 있다.\n",
    "phone": "0507-1319-2173",
    "type": "restaurant"
  },
  {
    "name": "코르 파스타 바",
    "district": "부산진구",
    "lat": 35.15265,
    "lng": 129.06767,
    "address": "부산진구 동성로 25번길13 2F",
    "description": "1인 셰프가 운영하는 생면파스타 전문점으로 직접 만든 면과 빵 등 요리에 정성을 다하는 곳이다. \n바 형태의 공간과 와인과 어울리는 음식구성이 특징이라고 한다.\n",
    "phone": "0507-1474-4570",
    "type": "restaurant"
  },
  {
    "name": "611WoodFire",
    "district": "수영구",
    "lat": 35.147713,
    "lng": 129.10889,
    "address": "수영구 황령산로14-1 2층",
    "description": "오너셰프의 스타일과 부산의 색을 녹여낸 우드파이어 레스토랑은 특색있지만 편안한 분위기를 연출한다. \n나무를 이용해 조리하여 훈연향이 음식의 풍미를 더 해준다.\n",
    "phone": "010-6549-0611",
    "type": "restaurant"
  },
  {
    "name": "뉼리 광안리점",
    "district": "수영구",
    "lat": 35.155136,
    "lng": 129.12401,
    "address": "수영구 민락수변로7 ok타운 8층",
    "description": "스테이크로 유명한 광안리의 오션뷰 프리미엄레스토랑으로 사용되는 고기는 에이징3주, 드라이에이징 1주 교차 숙성으로 식감과 풍미를 극대화 했다.\n",
    "phone": "0507-1374-3870",
    "type": "restaurant"
  },
  {
    "name": "더스모코",
    "district": "수영구",
    "lat": 35.15483,
    "lng": 129.12616,
    "address": "수영구 광안해변로 294번길 36 1층",
    "description": "유럽의 거리에서 가져온듯한 이 가게는 국내 최초로 기버터 스테이크를 만들어 조리하고 있는 곳이다. \n직원구성도 글로벌한, 감성적인 인테리어의 가게에서 브런치 메뉴와 식사를 즐겨보자.\n",
    "phone": "0507-1462-3202",
    "type": "restaurant"
  },
  {
    "name": "램지",
    "district": "수영구",
    "lat": 35.153328,
    "lng": 129.12515,
    "address": "수영구 광안해변로284번길 38 해링턴타워광안 304호",
    "description": "클래식 프렌치를 추구하는 다이닝으로 부산의 식재료를 사용하여 계절마다 다른 코스를 선보이고 있다. \n다양한 와인잔과 함께 전문 소믈리에가 상주하고 있는 곳이기도 하다.\n",
    "phone": "010-9406-3135",
    "type": "restaurant"
  },
  {
    "name": "아웃트로 바이 비토",
    "district": "수영구",
    "lat": 35.15835,
    "lng": 129.12785,
    "address": "수영구 민락본동로 19번길 18 1층",
    "description": "이탈리아 ICIF를 졸업한 셰프 비토의 비스트로인 이곳이 부산에서 최초로 생면 파스타를 시작한 곳이다. \n22년 경력 셰프의 경험이 담긴 요리들과 내추럴 와인을 만날 수 있다.\n",
    "phone": "051-758-7123",
    "type": "restaurant"
  },
  {
    "name": "랩24 바이 쿠무다",
    "district": "해운대구",
    "lat": 35.177433,
    "lng": 129.19717,
    "address": "해운대구 송정 광어골로 41 4층",
    "description": "부산의 식재료를 바탕으로 한 셰프 에드워드권의 프렌치파인다이닝으로 2023년 세계 1000대 레스토랑 “La Liste 1000”에 등재된 부산 유일의 레스토랑.\n",
    "phone": "051-701-1301",
    "type": "restaurant"
  },
  {
    "name": "르도헤",
    "district": "해운대구",
    "lat": 35.15545,
    "lng": 129.1466,
    "address": "해운대구 마린시티3로 37 213,214호",
    "description": "부산의 식재료를 기반으로 한 현대적이고 창의적인 한식 컨템포러리 다이닝으로 부산의 멋과 맛을 담아낸 코스를 통해 특별한 식사 경험을 제공하는 곳이다.\n",
    "phone": "051-747-8522",
    "type": "restaurant"
  },
  {
    "name": "롯데호텔 부산 블루헤이븐",
    "district": "부산진구",
    "lat": 35.15663,
    "lng": 129.05563,
    "address": "부산진구 가야대로 772 롯데호텔 부산 7층",
    "description": "낮에는 휴양지의 편안하고 여유로운 분위기를 밤에는 도심 속 야경과 함께 은은한 조명의 정원이로맨틱한 분위기를 연출하는 이곳은 캐주얼 다이닝 메뉴와 칵테일 와인 등 다양한 음료가 준비되어 있다.\n",
    "phone": "051-810-6300",
    "type": "restaurant"
  },
  {
    "name": "팔레트",
    "district": "해운대구",
    "lat": 35.156513,
    "lng": 129.17834,
    "address": "해운대구  달맞이길65번길 154, 3층",
    "description": "프렌치쿠킹 테크닉과 다양한 재료의 조합을 바탕으로 하는 김재훈 셰프의 창의적이고 감각적인 다이닝레스토랑.\n",
    "phone": "051-626-2364",
    "type": "restaurant"
  },
  {
    "name": "델리봉",
    "district": "연제구",
    "lat": 35.19158,
    "lng": 129.09442,
    "address": "연제구 신금로 25, 노블레스스퀘어 110호",
    "description": "샤퀴테리를 활용한 프랑스 코스요리전문점으로 셰프가 혼자 운영하고 있는 곳이다. 이곳을 찾는다면 간판이 없어 잠깐 당황스러울 수도 있을 것이나 그 안에선 분명 만찬이 벌어지고 있다.\n",
    "phone": "051-868-6848",
    "type": "restaurant"
  },
  {
    "name": "아펙트",
    "district": "수영구",
    "lat": 35.159874,
    "lng": 129.12129,
    "address": "수영구 무학로 64번길 31, 1층",
    "description": "커다란 U자 형태의 테이블이 인상적인 이 곳은 제철재료를 이용하여 만든 프렌치 베이스의 다이닝 레스토랑으로, 와인과의 페어링이 좋은 메뉴를 구성하고 있다.\n",
    "phone": "0507-1307-7822",
    "type": "restaurant"
  },
  {
    "name": "모모스커피",
    "district": "금정구",
    "lat": 35.21928,
    "lng": 129.08643,
    "address": "금정구 오시게로 20",
    "description": "2019월드 바리스타 챔피언십(WBC) 우승자가 있는 이 곳은\n카페의 도시 부산에서도 가장 유명한 카페 중 하나인 모모스커피.\n고급 원두를 직접 로스팅하여 커피를 준비하며, 커피에 대한 애정이 가득한 공간이다.\n",
    "phone": "051-512-7034",
    "type": "restaurant"
  },
  {
    "name": "파니니브런치본점",
    "district": "사상구",
    "lat": 35.12544,
    "lng": 128.96982,
    "address": "사상구 엄궁남로 15",
    "description": "주택을 개조하여 만든 예쁜 외관의 브런치카페로, 휴일과 잘 어울릴 것 같은 화사한 실내와창 너머에 보이는 화단이 인상적이다. 아메리칸 브런치, 불고기파니니, 맥앤치즈파니니, 부리또 브런치, 리코타샐러드 등이 인기 있는 메뉴이다.\n\n",
    "phone": "0507-1332-2292",
    "type": "restaurant"
  },
  {
    "name": "웨이브온커피",
    "district": "기장군",
    "lat": 35.32225,
    "lng": 129.26979,
    "address": "기장군 장안읍 해맞이로 286",
    "description": "바다와 카페라는 테마를 이야기할 때 항상 거론되는 로스토리 카페로 전문 큐그레이더가\n직접 가져온 스페셜티 커피를 이용한 드립 커피 등 커피 베리에이션 메뉴가 전문이다 .\n야외에 해변을 바라볼 수 있는 자리와 담요가 구비되어 있다.\n",
    "phone": "051-727-1660",
    "type": "restaurant"
  },
  {
    "name": "초량1941 ",
    "district": "동구",
    "lat": 35.11969,
    "lng": 129.02942,
    "address": "동구 망양로 533-5",
    "description": "동구의 관광명소인 ‘이바구길’에 위치한 이 카페는 1941년 당시 부산에 살던 일본인에 의해 지어진 집을 개조한 곳으로, 주변 환경을 포함해 외관도 실내도 모두 1941년을 연상시 키는 레트로한 감성을 가지고 있다. \n메인메뉴는 자체개발한 예쁜 병에 담겨있는 다양한 ‘우유’이다.\n\n",
    "phone": "051-462-7774",
    "type": "restaurant"
  },
  {
    "name": "에테르",
    "district": "영도구",
    "lat": 35.077286,
    "lng": 129.04646,
    "address": "부산 영도구 절영로 234\n",
    "description": "흰여울 문화마을의 중심지에 위치한 4층으로 구성된 루프 탑 카페로,\n전 층에서 영도의 멋진 바다풍경을 감상 할 수 있는 곳이다 .\n가볍게 음료와 디저트를 즐길 수도 있지만 랍스터롤 등 인기 있는 식사메뉴도 갖추고 있다\n",
    "phone": "0507-1405-5055\n",
    "type": "restaurant"
  },
  {
    "name": "디저트시네마",
    "district": "연제구",
    "lat": 35.176273,
    "lng": 129.09052,
    "address": "부산 연제구 쌍미천로 32-1\n",
    "description": "크로아상, 뺑 오 쇼콜라 등 페스츄리류를 기반으로 빵을 만들며\n당일 생산 당일 판매를 원칙으로 한다. 크루아상이 특히 인기 있으며 조금 늦게 찾아가면 모든 빵이 매진되어 버리는 인기 베이커리.\n",
    "phone": "051-867-5757",
    "type": "restaurant"
  },
  {
    "name": "홍옥당",
    "district": "수영구",
    "lat": 35.146893,
    "lng": 129.11392,
    "address": "부산 수영구 남천동로 108번길 49\n",
    "description": "광안리해수욕장 앞 골목길에 위치한 아담한 이 가게는 국산 팥만을 사용하여 음식들을 만드는 팥전문점이다. 팥빙수와 단팥죽, 단팥빵이 유명한데,\n특히 단팥빵의 인기가 높아 빵을 사가려는 사람들의 줄이 길게 늘어서곤 한다.\n",
    "phone": "051-627-1026",
    "type": "restaurant"
  },
  {
    "name": "피아크 카페&베이커리",
    "district": "영도구",
    "lat": 35.08665,
    "lng": 129.077,
    "address": "영도구 해양로 195번길 180 4층",
    "description": "하버뷰를 자랑하는 거대한 베이커리카페로 주말이면 유원지라도 온 듯 많은 인파가 몰리지만, 워낙 넓은 공간을 가지고 있어 웨이팅은 생각보다 짧다. 약 80여 종의 다양한 베이커리와 음료, 아이스크림이 준비되어 있고 볼거리가 많은 곳이다.\n",
    "phone": "051-404-9204",
    "type": "restaurant"
  },
  {
    "name": "큐제",
    "district": "금정구",
    "lat": 35.26486,
    "lng": 129.08542,
    "address": "부산 연제구 중앙대로1043번길 34 ",
    "description": "프랑스인 파티셰가 운영하는 작은 베이커리 카페로, 최상급 밀과 버터를 사용하여 천연발효종과 저온숙성을 통해 빵을 구워낸다. 프랑스의 대표 빵인 바게트와 크로아상을 비롯해 20여 가지의 빵들을 만날 수 있다.\n\n*당분간 주말은 카페로만 운영 중\n",
    "phone": "0507-1392-8489",
    "type": "restaurant"
  },
  {
    "name": "커피스가모 인 서면",
    "district": "부산진구",
    "lat": 35.15878,
    "lng": 129.05403,
    "address": "부산진구 가야대로 755번길 23 1층",
    "description": "아주 드물게 전통적인 핸드드립과 사이폰을 이용해 커피를 내리는 이곳은 시간은 조금 더 걸리지만 색다른 커피를 즐길 수 있는 곳이다. 고급스러운 실내와 테이블 착석 후 주문하고 후불 결제하는 고풍스러운 운영을 고수하는 것도 인상적이다.\n",
    "phone": "051-818-1007",
    "type": "restaurant"
  },
  {
    "name": "칠암사계",
    "district": "기장군",
    "lat": 35.299957,
    "lng": 129.25919,
    "address": "기장군 일광읍 칠암1길 7-10",
    "description": "넓은 매장이 좁게 느껴질 정도로 많은 인파가 몰리는 이곳은 기장의 바다를 바라보면서 다양한 빵과 음료를 즐길 수 있는 유명한 카페다. 모든 곳이 예쁘고, 모든 빵이 맛있는 곳으로, 소금빵과 칠암돌만주가 특히 유명하다.\n",
    "phone": "0507-1318-4900",
    "type": "restaurant"
  },
  {
    "name": "초량온당",
    "district": "동구",
    "lat": 35.123413,
    "lng": 129.04155,
    "address": "동구 초량중로 135, 1층",
    "description": "오픈시간이면 원하는 빵을 사기 위해 긴 줄이 생기는 유명 베이커리로 빵의 도시 부산에서도 보기 힘든 색다른 조합과 레시피의 다양한 빵들을 만날 수 있다. 특히 황 치즈를 사용한 빵들이 제일 인기 있다고 한다.\n",
    "phone": "0507-1318-1271",
    "type": "restaurant"
  },
  {
    "name": "이흥용과자점 부산대직영점",
    "district": "금정구",
    "lat": 35.23029,
    "lng": 129.08397,
    "address": "금정구 부산대학로 63번길 30",
    "description": "너무나도 유명한 대한민국 제과명장의 베이커리로 4년간 간수 뺀 신안천일염, 제철 우리 농산물 등 좋은 재료를 사용한 100여종의 빵과 디저트를 매일 직접 구워 제공하고 있다.\n",
    "phone": "051-711-4454",
    "type": "restaurant"
  },
  {
    "name": "용호동할매팥빙수단팥죽 본점",
    "district": "남구",
    "lat": 35.124126,
    "lng": 129.11104,
    "address": "남구 용호로 90번길 24",
    "description": "오래전부터 팥빙수와 단팥죽으로 유명했던 팥전문점으로 2대에 걸쳐 40여 년이 넘게 운영 중인 곳이다. 직접 삶은 통팥과 밀양얼음골사과, 부산우유를 사용하는 등 지역의 재료를 사용한 변함없는 맛을 지켜가고 있다.\n",
    "phone": "0507-1401-9946",
    "type": "restaurant"
  },
  {
    "name": "올드머그",
    "district": "해운대구",
    "lat": 35.17039,
    "lng": 129.19714,
    "address": "해운대구 송정구덕포길 122, 1층",
    "description": "뒤로는 해변열차가 지나가고 산책길과 이어져 있는 핸드드립 전문 카페로 이른 아침부터 일출과 티타임을 즐기러 온 손님들이 많다. 실내와 실외 모두 감성적인 공간으로 색다른 송정바다를 만날 수 있는 곳이다.\n",
    "phone": "051-704-9004",
    "type": "restaurant"
  },
  {
    "name": "아데초이",
    "district": "기장군",
    "lat": 35.286453,
    "lng": 129.25821,
    "address": "기장군 일광읍 문오성길 162-1",
    "description": "강렬한 색감의 고풍스러운 실내가 창밖으로 보이는 바다와 무척 잘 어울리는 카페로, 고급스러운 맛으로 유명한 이 곳의 디저트들은 동경제과학교 출신의 오너가 직접 만들고 있다. 클래식과 재즈 음악이 조금 나이가 있는 손님들과 참 잘 어울린다\n",
    "phone": "070-8804-1355",
    "type": "restaurant"
  },
  {
    "name": "빌라빌레쿨라",
    "district": "동래구",
    "lat": 35.198376,
    "lng": 129.06964,
    "address": "동래구 여고로 63번 나길 8",
    "description": "말괄량이 삐삐가 살던 오두막의 이름을 가진 이곳은 도심 속에서 만나는 휴식의 공간이다. 직접 만든 팬케이크 등의 디저트와 음료는 좋은 재료를 사용하였고, 구석구석 따뜻한 분위기를 가진 나만 알고 싶은 그런 카페다.\n",
    "phone": "0507-1379-0100",
    "type": "restaurant"
  },
  {
    "name": "브리타니",
    "district": "강서구",
    "lat": 35.037563,
    "lng": 128.81287,
    "address": "강서구 가덕해안로 663",
    "description": "조용한 해안마을에 자리한 감성적인 분위기의 카페로 커다란 창밖으로\n가덕도 해안이 한눈에 보이는 바다경치를 자랑한다.\n루프 탑도 운영 중이며 간단한 식사메뉴도 함께 즐길 수 있는 곳\n",
    "phone": "0507-1368-4172",
    "type": "restaurant"
  },
  {
    "name": "브레이크인커피",
    "district": "기장군",
    "lat": 35.340794,
    "lng": 129.17773,
    "address": "기장군 정관읍 병산로 117",
    "description": "일상에서 벗어나 파노라마 숲속에서 커피 한 잔의 여유를 즐길 수 있는 곳으로, 카페라고는 하지만 22년 경력 제과기능장의 빵을 맛볼 수 있는 베이커리이기도 하다. 재미있는 모양의 수박식빵과 호랑이식빵이 인기있다.\n",
    "phone": "051-728-7081",
    "type": "restaurant"
  },
  {
    "name": "bread365",
    "district": "남구",
    "lat": 35.135845,
    "lng": 129.08633,
    "address": "남구 못골로 41번길 13 상가 205동 101호",
    "description": "천연 발효종과 저온발효로 빵 자체의 풍미가 좋고 소화가 잘되는 빵을 만든다. 빵은 손으로 만질 수 없게 쇼케이스 안에 진열되어 있으며 매일 직접 만드는 바게트 샌드위치가 특히 인기 있다.\n",
    "phone": "051-711-1951",
    "type": "restaurant"
  },
  {
    "name": "보리종파티세리 본점",
    "district": "금정구",
    "lat": 35.233204,
    "lng": 129.09138,
    "address": "금정구 중앙대로 1667 1층",
    "description": "맛있고도 건강한 빵을 연구하는 이곳은 버터향 가득한 소금빵이 바삭하고 쫄깃한 식감으로 인기 있으며, 대표메뉴인 천연발효종 유럽빵과 통밀 건강빵이 다양한 종류로 준비되어 있다\n",
    "phone": "051-513-5200",
    "type": "restaurant"
  },
  {
    "name": "바우노바",
    "district": "중구",
    "lat": 35.099163,
    "lng": 129.03558,
    "address": "중구 광복로 97번길 6",
    "description": "다양한 원두를 사용하며 하루에도 3~4번씩 원두를 바꾼다는 이곳에선 워터소믈리에, SCA 커피 감별사 자격을 보유한 바리스타가 나에게 맞는 커피를 찾아준다. 외국인을 포함한 단골손님이 많은 카페다.\n",
    "phone": "051-253-3757",
    "type": "restaurant"
  },
  {
    "name": "토북베이커리",
    "district": "강서구",
    "lat": 35.11187,
    "lng": 128.87785,
    "address": "강서구 낙동남로 526-1 토북베이커리카페",
    "description": "넓은 한옥 인테리어의 카페로 대한민국 제과제빵명장 ‘김덕규 베이커리’를 함께 즐길 수 있다. \n한옥과 어우러진 마당을 바라보며 사계절을 아름답게 바라볼 수 있는 매력적인 장소다.\n",
    "phone": "0507-1371-0250",
    "type": "restaurant"
  },
  {
    "name": "카페호밀",
    "district": "금정구",
    "lat": 35.22877,
    "lng": 129.07726,
    "address": "금정구 금샘로 34",
    "description": "유기농 밀가루와 천연발효종인 르방을 사용하여 빵을 만들고 있는 곳으로 프랑스 발효 버터와 100% 동물성 생크림, 마다가스카르 바닐라빈, 동물복지 유정란을 사용해 당일 만들어서 당일 판매하고 있다.\n",
    "phone": "0507-1337-0234",
    "type": "restaurant"
  },
  {
    "name": "칙투칙",
    "district": "동래구",
    "lat": 35.192467,
    "lng": 129.10147,
    "address": "동래구 온천천로 441번길 17",
    "description": "영국에서 공부하고 활동한 파티시에 동생과 플로리스트 언니가 오픈한 공간이다. \n좋은 재료로 계절의 맛을 담아 디저트를 준비하고 사랑하는 사람들과 꼭 함께하고 싶은 공간을 가꾸고 있다.\n",
    "phone": "051-531-1005",
    "type": "restaurant"
  },
  {
    "name": "프랑스 과자점  브리앙",
    "district": "동래구",
    "lat": 35.221756,
    "lng": 129.08356,
    "address": "동래구 온천장로 119번길 26 1층",
    "description": "봉식당 1층에 자리한 전통 프랑스과자점으로 유명 파티시에의 가게인 이곳은 특별한 플래이버를 지닌 전통 프랑스과자들을 만날 수 있는 곳이다.\n",
    "phone": "0507-1342-5709",
    "type": "restaurant"
  },
  {
    "name": "베르크로스터스",
    "district": "부산진구",
    "lat": 35.152615,
    "lng": 129.06628,
    "address": "부산진구 서전로58번길 115 1층-2층",
    "description": "베르크로스터스의 스페셜티 로스터리 쇼룸, 다양한 원두를 에스프레소에서 필터커피까지 만나볼 수 있는 곳으로 원두정보 및 안내, 구매, 브랜드 굿즈까지 만나볼 수 있다.\n",
    "phone": "051-817-2111",
    "type": "restaurant"
  },
  {
    "name": "무슈뱅상",
    "district": "수영구",
    "lat": 35.146374,
    "lng": 129.11293,
    "address": "수영구 광남로 48번길 19",
    "description": "프랑스산 밀가루와 천연발효종인 르방을 사용하여 빵을 만드는 이곳은 20년간 빵을 만들어온 오너가 혼자서 운영하고 있는 가게이다. 오픈런이 필수인 유명한 곳.\n",
    "phone": "051-625-1125",
    "type": "restaurant"
  },
  {
    "name": "그리다부부",
    "district": "중구",
    "lat": 35.102577,
    "lng": 129.03072,
    "address": "중구 광복중앙로 35-1 1층",
    "description": "행복한 공간을 추구하는 부부의 취향이 온전히담긴 감성적인 카페로 직접 로스팅한 ‘강배전 스페셜티 커피’와 함께 행복한 기분을 느낄 수 있도록 세심하게 구성된 공간이다.\n",
    "phone": "010-7516-0484",
    "type": "restaurant"
  },
  {
    "name": "연경재",
    "district": "중구",
    "lat": 35.10035,
    "lng": 129.03592,
    "address": "중구 중앙대로 29번길 6",
    "description": "창립자가 직접 디자인한 건물과 시간과 공간, 문화의 어우러짐을 표현한 철학이 느껴지는 공간이 특색 있다. \n카페음료뿐 아니라 국내 각지의 좋은 차와 음료 재료를 발굴 개발하고 있는 곳.\n",
    "phone": "0507-1412-5753",
    "type": "restaurant"
  },
  {
    "name": "비비비당",
    "district": "해운대구",
    "lat": 35.16249,
    "lng": 129.18504,
    "address": "해운대구 달맞이길 239-16, 4층",
    "description": "고려청자, 조선백자와 같은 골동 다기들을 사용해서 오래 전 감성을 느낄 수 있는 한국전통찻집으로 차와 함께하는 시간을 통해 일상에서의 작은 여유를 선물하는 곳이다.\n",
    "phone": "051-746-0705",
    "type": "restaurant"
  },
  {
    "name": "보느파티쓰리",
    "district": "연제구",
    "lat": 35.19527,
    "lng": 129.07895,
    "address": "연제구 교대로 7, 2층",
    "description": "프랑스 르 꼬르동 블루를 졸업하고, 호텔 샹그릴라 파리, 호텔리츠 파리 등 14년간 파리에서 활동한 김지연 파티시에의 디저트가게로 프랑스제과가 기초가 된 프랑스디저트 전문점이다.\n",
    "phone": "051-502-2451",
    "type": "restaurant"
  },
  {
    "name": "데일리럭키",
    "district": "수영구",
    "lat": 35.153927,
    "lng": 129.11264,
    "address": "수영구 수영로 540번길 7",
    "description": "유기농 밀과 토종 밀로 사워도우 식사빵을 만들고 있는 곳으로 이 포근하고 기분좋은 공간은 매일 아침 7시부터 사워도우 빵과 샌드위치 그리고 따뜻한 수프와 함께 문을 연다.\n",
    "phone": "0507-1330-1707",
    "type": "restaurant"
  },
  {
    "name": "연화제과",
    "district": "부산진구",
    "lat": 35.179752,
    "lng": 129.04688,
    "address": "부산진구 새싹로 265번길 12",
    "description": "조용하고 정갈한 공간에서, 건강하고 좋은 재료를 사용하여 만드는 디저트를 만날 수 있는 곳으로, 제철과일과 채소를 이용한 케이크와 구움과자를 만들고 있는 곳이다.\n",
    "phone": "0507-1415-4191",
    "type": "restaurant"
  },
  {
    "name": "히떼로스터리 전포점",
    "district": "부산진구",
    "lat": 35.15574,
    "lng": 129.06819,
    "address": "부산진구 동성로 59 2층",
    "description": "공간도 커피도 마지막까지 편안하고 부드러운 것을 지향하는 이곳은 밸런스 좋고 여운이 깔끔한 커피를 완성하는 것에 가장 많은 시간과 노력을 기울인다고 한다.\n",
    "phone": "070-7607-7060",
    "type": "restaurant"
  },
  {
    "name": "만호갈미샤브샤브",
    "district": "강서구",
    "lat": 35.101425,
    "lng": 128.92914,
    "address": "강서구 르노삼성대로 602",
    "description": "샤브샤브, 수육, 구이 등 다양한 방식으로 갈미조개를 요리하는 갈미조개 전문 식당. 국물이 맛있기로 유명한 이곳은 갈미샤브샤브와 갈미수육이 대표메뉴이다.\n",
    "phone": "051-271-4389",
    "type": "restaurant"
  },
  {
    "name": "부흥식당",
    "district": "영도구",
    "lat": 35.085815,
    "lng": 129.04071,
    "address": "영도구 절영로 104",
    "description": "영도의 유명한 제주 자리돔전문점으로 싱싱한 자리돔과 직접 만든 양념장의 맛이 무척 잘 어울린다.\n당일 판매 할 수 있는 한정된 양만 판매하고 있는 이곳은 제주갈치 요리로도 유명하다.\n",
    "phone": "051-417-0227",
    "type": "restaurant"
  },
  {
    "name": "원조할매집",
    "district": "부산진구",
    "lat": 35.142147,
    "lng": 129.06017,
    "address": "부산진구 골드테마길 10",
    "description": "1968년부터 운영 중인 이곳을 소개하는 것은 딱 한마디면 충분하다.\n부산의 향토음식인 ‘조방낙지’가 시작된 곳. 더 이상 무슨 설명이 필요하겠는가.\n",
    "phone": "051-643-5037",
    "type": "restaurant"
  },
  {
    "name": "김해식당",
    "district": "중구",
    "lat": 35.09748,
    "lng": 129.02994,
    "address": "중구 자갈치로 51-2",
    "description": "TV프로그램에도 자주 소개되는 유명한 아귀요리전문점으로\n1980년부터 생 아귀를 이용한 음식들을 만들고 있다.\n푸짐하고 신선한 아귀와 아귀 특수부위를 함께 먹을 수 있으며 외국인들도 즐겨 찾는 식당이다.\n",
    "phone": "051-255-8242",
    "type": "restaurant"
  },
  {
    "name": "물꽁식당",
    "district": "중구",
    "lat": 35.104504,
    "lng": 129.0244,
    "address": "중구 흑교로59번길 3",
    "description": "60년째 3대를 이어 운영해온 전통 있는 아귀요리전문점으로 신선한 아귀를 사용해 아구찜, 수육, 탕을 만든다. \n자극적이지 않은 담백한 맛의 아구찜이 대표메뉴로 오래되었지만 청결한 가게가 인상적이다\n",
    "phone": "051-257-3230",
    "type": "restaurant"
  },
  {
    "name": "부산명물횟집",
    "district": "중구",
    "lat": 35.09714,
    "lng": 129.0312,
    "address": "중구 자갈치해안로 55 ",
    "description": "1946년부터 운영해 온 무척 유명한 횟집으로 여러 유명인사들의 단골집이기도 하다.\n광어회 한 접시에 고기뼈를 푹 고아서 만든 진하고 담백한 맑은 국과 여섯 가지 밑반찬이 나오는 회정식이 인기메뉴이다\n",
    "phone": "051-245-4995",
    "type": "restaurant"
  },
  {
    "name": "동백섬횟집",
    "district": "해운대구",
    "lat": 35.160427,
    "lng": 129.15468,
    "address": "해운대구 해운대해변로209번나길 17\n",
    "description": "해운대 그랜드호텔 인근에 있는 자연산 활어회 전문 횟집으로,\n생선회를 주문하면 문어숙회, 멍게, 전복, 가자미구이, 새우튀김 등의 다양한 밑반찬과 식사 후 매운탕 등의 요리가 함께 제공된다. 대부분의 생선은 시가에 따라서 가격이 변동된다.\n",
    "phone": "051-741-3888",
    "type": "restaurant"
  },
  {
    "name": "대티물꽁",
    "district": "사하구",
    "lat": 35.10239,
    "lng": 129.00041,
    "address": "사하구 낙동대로 135번안길15",
    "description": "주택을 개조한 포근한 공간은 중·장년층의 향수를 자극할만한 소품들로 인테리어 되어 있다.\n비교적 저렴한 가격으로 푸짐한 음식들을 만날 수 있어 이 지역의 주민들에게 오랜 시간 사랑받아온 아귀찜전문점이다.\n",
    "phone": "051-203-4425",
    "type": "restaurant"
  },
  {
    "name": "국이네낙지볶음",
    "district": "수영구",
    "lat": 35.168022,
    "lng": 129.11382,
    "address": "수영구 연수로 410 ",
    "description": "푸짐한 재료와 자극적이지 않은 맛으로 인기 있는 낙지볶음전문점으로\n부산의 쟁쟁한 낙지볶음전문점들 사이에서 신흥강자로 떠오른 곳이다.\n반찬들은 모두 셀프리필이 가능하고, 직원들이 항상 친절한 것으로도 유명하다\n",
    "phone": "051-754-7776",
    "type": "restaurant"
  },
  {
    "name": "광안리신라횟집",
    "district": "수영구",
    "lat": 35.155254,
    "lng": 129.12456,
    "address": "수영구 민락수변로7번길 16 2층~4층",
    "description": "다양한 종류의 물회가 준비되어 있는 물회전문 횟집으로\n10가지 이상의 재료를 혼합·숙성시킨 소스와 황칠나무를 다린 물 등으로 만든 육수를 사용한다.\n차갑게 얼린 맥반석을 접시로 사용해 회를 제공하는 것도 특징이다\n",
    "phone": "051-753-2800",
    "type": "restaurant"
  },
  {
    "name": "초원복국",
    "district": "남구",
    "lat": 35.137794,
    "lng": 129.10591,
    "address": "남구 황령대로492번길 30 ",
    "description": "무척 유명한 복어요리 전문점인 이곳은 50년 경력의 일식요리사인 아버지와\n부산 최초의 특수조리사 복어자격증 소지자인 아들이 2대째 경영하고 있는 곳으로,\n언제나 많은 손님들로 북적이는 곳이다. 최상급의 복어요리를 만날 수 있는 곳이다\n",
    "phone": "051-628-3935",
    "type": "restaurant"
  },
  {
    "name": "김유순대구뽈찜",
    "district": "남구",
    "lat": 35.136368,
    "lng": 129.09152,
    "address": "남구 진남로15",
    "description": "충무식당이란 이름으로도 많이 기억하고 있는 대구뽈찜전문점으로\n양파가 가득 들어간 빨간 양념이 특징이다. 콩나물과 빨간 양념이 수북하게 쌓여있는\n독특한 모습의 대구뽈찜은 막걸리와도 잘 어울리고, 감자면 사리를 추가해서 먹으면 완벽하다.\n",
    "phone": "051-627-4319",
    "type": "restaurant"
  },
  {
    "name": "광명집",
    "district": "남구",
    "lat": 35.125664,
    "lng": 129.10095,
    "address": "남구 신선로 458",
    "description": "20년이 넘게 대를 이어 운영 중인 아귀찜/대구뽈찜 전문점으로\n신선하고 품질 좋은 재료들로 찜요리를 만들고 있다.\n대구뽈찜은 양파가 가득 올려 진 독특한 조리법이 사용되며, 두 가지 찜 요리가 모두 인기 있다\n",
    "phone": "051-621-4376",
    "type": "restaurant"
  },
  {
    "name": "무궁화",
    "district": "수영구",
    "lat": 35.14778,
    "lng": 129.10925,
    "address": "황령산로8번길 5",
    "description": "할머니집에 놀러온 것 같은 느낌을 주는 이곳은 전골요리로 무척 유명한 식당으로, 직접 만든 커다란 만두를 사용한 만두전골이 특히 인기 있다. 신선한 야채를 사용하는 이곳은 항상 변함없는 맛으로 기억되는 곳이기도 하다.\n\n\n",
    "phone": "051-623-5700",
    "type": "restaurant"
  },
  {
    "name": "마파람해물찜해물탕 구서본점",
    "district": "금정구",
    "lat": 35.244667,
    "lng": 129.08856,
    "address": "금정구 금강로 418 2층",
    "description": "깔끔한 외관과 인테리어를 가진 큰 규모의 매장은 언제나 손님들로 가득 차 있다. 2005년에 개업하여 꽤 오랜 시간 사랑받아 온 해산물요리전문점으로 싱싱한 해산물과 누구나 좋아할 것 같은 맛의 양념으로 인기 높은 곳이다.\n",
    "phone": "051-557-5577",
    "type": "restaurant"
  },
  {
    "name": "청해수산",
    "district": "영도구",
    "lat": 35.092476,
    "lng": 129.0438,
    "address": "영도구 태종로 113번길 35",
    "description": "두껍게 썬 회로 유명한 이 곳은 평범한 시장횟집처럼 보이지만 평일에도 이른 시간부터 늦은 시간까지 웨이팅이 이어지는 인기 있는 횟집이다. 회의 두께는 조절이 가능하고 포장을 위해 찾는 손님들도 많다.\n",
    "phone": "051-412-6888",
    "type": "restaurant"
  },
  {
    "name": "궁중해물탕 조씨집 대연본점",
    "district": "남구",
    "lat": 35.13556,
    "lng": 129.09119,
    "address": "남구 진남로 7-11",
    "description": "1959년에 개업하여 2대에 걸쳐 운영해오고 있는 유명한 해물탕전문점으로, 생선내장과 해물이 듬뿍 들어간 백년해물탕이 이곳의 대표 메뉴이다. 오랜 전통에만 기대지 않고 독자적인 메뉴를 개발하여 좋은 반응을 얻고 있는 곳이기도 하다.\n",
    "phone": "0507-1323-4749",
    "type": "restaurant"
  },
  {
    "name": "까치횟집",
    "district": "수영구",
    "lat": 35.155018,
    "lng": 129.13171,
    "address": "수영구 광안해변로344번길 17-20 풍경타워",
    "description": "광안리에는 멋진 바다풍경을 배경으로 식사 할 수 있는 좋은 횟집들이 많은데 이곳이 바로 그런 곳이다. 직접 준비하는 백김치가 회랑 잘 어울리고 간장게장과 새우장이 깔끔하고 맛있다.\n",
    "phone": "0507-1400-5663",
    "type": "restaurant"
  },
  {
    "name": "미청식당",
    "district": "기장군",
    "lat": 35.260254,
    "lng": 129.2332,
    "address": "기장군 일광읍 기장해안로 1303",
    "description": "일광해수욕장 해변에 자리한 이곳은 성게의 한 종류인 앙장구(말똥성게)비빔밥을 전문으로 하는 해산물식당으로 한정적인 메뉴를 취급하고 있는 것이 더 신뢰가 간다. 웨이팅이 상당한 곳이다.\n",
    "phone": "051-721-7050",
    "type": "restaurant"
  },
  {
    "name": "원조 바다집",
    "district": "중구",
    "lat": 35.100822,
    "lng": 129.0299,
    "address": "중구 광복로 43번길 18-5",
    "description": "대를 이어 50여 년을 운영 중인 유명한 식당으로 다수의 TV프로그램을 통해서도 많이 알려져 있다. 손질된 해산물이 가득 들어간 수중전골이 이곳을 유명하게 만든 메뉴이며 지역민들의 추억이 담긴 음식이기도 하다.\n",
    "phone": "051-245-1924",
    "type": "restaurant"
  },
  {
    "name": "소문난원조조방낙지본점",
    "district": "동래구",
    "lat": 35.203987,
    "lng": 129.08392,
    "address": "동래구 명륜로 94번길 37",
    "description": "1972년부터 3대째 운영하고 있는 낙지볶음전문점으로 부산에서는 모르는 사람이 드문 식당 중 한 곳이기도 하다. 직접 뼈를 우려낸 육수와 비법 양념장으로 항상 많은 손님들이 찾는 곳이다.\n",
    "phone": "051-555-7763",
    "type": "restaurant"
  },
  {
    "name": "오대양횟집",
    "district": "사상구",
    "lat": 35.150047,
    "lng": 129.01125,
    "address": "사상구 주례로 12",
    "description": "평범한 횟집처럼 보이는 이곳은 회와 함께, 돼지·소고기 구이를 함께 하는 대단히 특이한 식당이다. 횟집에서 고기 먹는 사람이 있을까 싶은데 대부분 고기부터 시작해서 회로 마무리한다고 한다. 배달로도 인기 높은 곳이다.\n",
    "phone": "051-327-9463",
    "type": "restaurant"
  },
  {
    "name": "오륙도낙지 범일본점",
    "district": "동구",
    "lat": 35.136383,
    "lng": 129.05554,
    "address": "동구 정공단로 46-1",
    "description": "1996년부터 30여 년을 운영 중인 곳으로 각종 TV프로그램을 통해서도 많이 소개된 곳으로, 유명세에 유사상호를 사용하는 곳들도 생겨 특허·상표등록을 했다고 한다. 동구의 1호 향토음식점이기도 하다.\n",
    "phone": "0507-1403-1593",
    "type": "restaurant"
  },
  {
    "name": "일미아구찜",
    "district": "기장군",
    "lat": 35.25894,
    "lng": 129.24767,
    "address": "기장군 일광읍 학리등대로 102 ",
    "description": "일광에 위치한 아귀찜전문점인 이곳은 어디서 구해오나 궁금할 정도로 커다란 아귀를 사용하여 아귀찜을 만든다. 정말 많은 사람들이 찾는 유명한 가게로 매운 정도를 선택할 수 있다.\n",
    "phone": "051-724-3318",
    "type": "restaurant"
  },
  {
    "name": "제주복국",
    "district": "영도구",
    "lat": 35.07098,
    "lng": 129.06885,
    "address": "영도구 절영로 481",
    "description": "뚝배기로 나오는 대부분의 복국집과 다르게 인원수만큼 끓인 복국을 그 자리에서 그릇에 담아준다. 부산에서 최고의 복국집을 거론할 때 항상 빠지지 않는 곳 중 한 곳으로 클래식한 분위기의 넓은 공간이 인상적인 곳이다.\n",
    "phone": "051-405-5050",
    "type": "restaurant"
  },
  {
    "name": "무진장횟집 기장점",
    "district": "기장군",
    "lat": 35.216946,
    "lng": 129.22612,
    "address": "기장군 기장읍 연화1길 137",
    "description": "365일 직접 붕장어의 상태를 체크하여 제공하고, 손질부터 조리까지 주방장이 책임지는 붕장어전문점. \n비법인 초장부터 김치까지 손님상에 올라가는 모든 것을 직접 만들어 사용한다.\n",
    "phone": "051-721-2956",
    "type": "restaurant"
  },
  {
    "name": "고등어다찌  연산본점",
    "district": "연제구",
    "lat": 35.187637,
    "lng": 129.08607,
    "address": "연제구 고분로31번길 42",
    "description": "부산 최초의 활고등어 전문점으로 살아있는 고등어회를 맛볼 수 있는 곳. \n통영의 어장에서 직접 살아있는 고등어를 공수하여 싱싱한 고등어회를 제공하고 있다.\n",
    "phone": "051-853-9374",
    "type": "restaurant"
  },
  {
    "name": "선창횟집",
    "district": "해운대구",
    "lat": 35.156857,
    "lng": 129.17383,
    "address": "해운대구 달맞이길62번길 67",
    "description": "40여 년을 운영해온 이곳은 매일같이 아침마다 직접 가져온 횟감을 준비하고 당일 수급된 채소와, 직접 담근 김치 등을 준비하며 요리는 매일 새로 만들어 제공한다. 조금 특별한 날에도 어울리는 횟집이다.\n",
    "phone": "051-747-7470",
    "type": "restaurant"
  },
  {
    "name": "우리포차",
    "district": "수영구",
    "lat": 35.161915,
    "lng": 129.11087,
    "address": "수영구 광일로29번길 9, 1층",
    "description": "강원도와 제주도에서 잡히는 10kg이상의 자연산 특방어만 사용하여 방어회를 제공하고 있는 이곳은 오픈과 동시에 손님이 가득차는 곳으로, 방어회와 함께 머리구이도 꼭 주문해야 할 메뉴라고 한다.\n",
    "phone": "010-8033-6342",
    "type": "restaurant"
  },
  {
    "name": "사미헌",
    "district": "부산진구",
    "lat": 35.159008,
    "lng": 129.05666,
    "address": "부산진구 서면문화로 19\t\t\t\t\t",
    "description": "유명한 한우전문점으로 국내 외 유명정상들이 방문했던 곳이기도 한 이 곳은\n숙련된 한우 명장이 꼼꼼하고 정직하게 준비한 수준 높은 한우를 만날 수 있다 .\n개별 룸이 잘 갖춰져 있어 각종 연회나 행사로도 많이 찾는 곳이다.\n",
    "phone": "051-819-6677",
    "type": "restaurant"
  },
  {
    "name": "거대갈비",
    "district": "해운대구",
    "lat": 35.16155,
    "lng": 129.16693,
    "address": "해운대구 달맞이길 22\n",
    "description": "최상등급의 고기와 최고의 원재료만을 사용한다는 한우숯불구이전문점으로, 깔끔한 실내와 친절한 점원들이 인상적이다. 최상등급의 한우인만큼 가격도 높은 편이지만, 직원이 고기를 구워주는 등 만족도가 높은 식당이다.\n",
    "phone": "051-746-0037",
    "type": "restaurant"
  },
  {
    "name": "옛날오막집",
    "district": "서구",
    "lat": 35.108913,
    "lng": 129.0199,
    "address": "서구 구덕로274번길 14",
    "description": "1958년부터 운영하고 있는 유명한 내장구이전문점으로 오랜 세월 사랑받고 있는 곳이다 .\n이곳의 내장구이는 전통만큼이나 각별한 맛을 자랑하는데 함께 제공되는\n장아찌와 나물들을 곁들여 먹으면 또 다른 맛을 즐길 수 있다.\n",
    "phone": "051-243-6973",
    "type": "restaurant"
  },
  {
    "name": "오륙도 가원",
    "district": "남구",
    "lat": 35.106773,
    "lng": 129.11171,
    "address": "남구 백운포로 14",
    "description": "건축상을 받은 아름다운 외관과 잘 가꾸어진 넓은 잔디정원이 인상적이다.\n이곳은 유명한 한우숯불구이 전문식당으로, 제공되는 음식과 서비스 등\n모든 것이 무척 고급스럽다\n",
    "phone": "051-635-0707",
    "type": "restaurant"
  },
  {
    "name": "남촌",
    "district": "북구",
    "lat": 35.21074,
    "lng": 129.00595,
    "address": "북구 금곡대로8번길 14",
    "description": "청정지역인 지리산 아래 산청의 흑돼지만 사용하고 있는 믿을 수 있는 돼지구이전문점이다.\n사용되는 흑돼지 자체가 일반적인 돼지고기와 식감과 맛의 차이가 많이 나며,\n껍데기가 붙어 있는 오겹살 흑돼지 고기를 쓰는 것이 특징이다.\n",
    "phone": "051-335-9294",
    "type": "restaurant"
  },
  {
    "name": "호포갈비 문현점",
    "district": "남구",
    "lat": 35.13401,
    "lng": 129.06631,
    "address": "남구 우암로 359",
    "description": "1층의 정육판매점에서 구입한 고기를 2층의 식당에서 구워먹는 방식의 식당으로,\n깔끔한 인테리어와 수준 높은 청결상태를 자랑한다.\n판매점에서는 질 좋은 육류를 취급하고 있으며, 다양한 부위의 한우를 직접 고를 수 있다\n",
    "phone": "051-639-9200",
    "type": "restaurant"
  },
  {
    "name": "물레방아 즉석구이",
    "district": "중구",
    "lat": 35.10104,
    "lng": 129.03513,
    "address": "중구 중앙대로41번길 11-1",
    "description": "미식가들 사이에서 꾸준히 좋은 평가를 받고 있는 45년 전통의 구이전문점으로, 한우 안거미 부위를 안금무라는 별칭으로 판매해 더 유명한 곳이기도 하다. 명점으로 인정받는 곳 답게 고기선별에 무척 신경을 쓴다고 한다.\n",
    "phone": "051-245-1195",
    "type": "restaurant"
  },
  {
    "name": "목장원",
    "district": "영도구",
    "lat": 35.07162,
    "lng": 129.05736,
    "address": "영도구 절영로 355",
    "description": "원래 소를 키우는 목장이었던 이 곳은 영도에서 가장 유명한 식당 중 한 곳으로, 식당과 카페 공원이 함께 있는 복합외식공간이다. 음식의 수준도 무척 높지만 이곳에서 보이는 바다풍경은 정말 각별하다.\n",
    "phone": "0507-1440-5000",
    "type": "restaurant"
  },
  {
    "name": "장어촌",
    "district": "부산진구",
    "lat": 35.15863,
    "lng": 129.05667,
    "address": "부산진구 부전로96번길 36",
    "description": "부산에서 장어구이를 이야기할 때 항상 최고로 거론되는 곳 중 한 곳으로, 주문즉시 장만한 장어와 6시간을 끓여 만든 특제한방소스를 경험해 본다면 누구나 그 사실을 인정할 수밖에 없을 것 같다.\n",
    "phone": "051-803-9617",
    "type": "restaurant"
  },
  {
    "name": "육화목",
    "district": "해운대구",
    "lat": 35.16929,
    "lng": 129.17072,
    "address": "해운대구 좌동순환로8번길 78",
    "description": "10년 이상 경력의 주인이 주문과 동시에 고기를 준비하여 제공하는 곳으로 한우와 한돈을 모두 주문할 수 있다. 조금 특별하게 고기를 즐기고 싶은 날 추천할 만한 숯불구이전문점이다.\n",
    "phone": "051-743-5747",
    "type": "restaurant"
  },
  {
    "name": "우토피아",
    "district": "수영구",
    "lat": 35.15517,
    "lng": 129.12115,
    "address": "수영구 광안해변로 249 3층",
    "description": "광안리 바다 뷰와 함께 2++등급 한우를 사용한 오마카세 구이를 즐길 수 있는 곳으로 준비되어 나오는 모습도 먹는 방식도 대단히 독특한 한우구이전문점이다. 연인과 함께 하는 것을 추천하고 싶은 식당이다.\n\n※2024.10.16~2026.07.31 임시휴업\n임시 휴업기간에는 룸8인이상 단체예약만 받으며 전화로만 받음. 일반예약 및 워크인은 불가\n",
    "phone": "0507-1388-3199",
    "type": "restaurant"
  },
  {
    "name": "우봉",
    "district": "해운대구",
    "lat": 35.157097,
    "lng": 129.14835,
    "address": "해운대구 마린시티1로 155 하이페리온상가 2층",
    "description": "동백섬이 보이는 시원한 뷰와 함께 하는 한우구이전문점으로 경매, 도축, 숙성 등의 전 과정을 전문가가 관리하여 만족할만한 품질의 소고기만 제공한다고 한다. 깔끔하고 독특한 모습의 샤브전골도 무척 인기있다.\n",
    "phone": "0507-1385-0641",
    "type": "restaurant"
  },
  {
    "name": "앙탄",
    "district": "강서구",
    "lat": 35.204876,
    "lng": 128.90659,
    "address": "강서구 식만로 118-1",
    "description": "낙동강 강변에 위치한 조용하고 여유로운 식당으로, 멋진 풍경을 감상할 수 있는 오리코스요리 전문점이다. 깔끔하고 기분 좋은 코스와 시그니처 디저트 곶감말이까지 여러모로 기분 좋은 곳이다.\n",
    "phone": "0507-1487-3122",
    "type": "restaurant"
  },
  {
    "name": "88돼지갈비",
    "district": "동구",
    "lat": 35.128063,
    "lng": 129.04562,
    "address": "동구 고관로 101-1",
    "description": "숙련된 솜씨로 구워주는 고기의 맛을 표현할 만한 방법이 떠오르지 않는다.\n입구부터 투박하고 오래된 흔적을 풍기는 이곳은, 40여 년을 운영해온 양념구이전문점으로 이른바 현지인의 단골가게이다.\n",
    "phone": "051-468-3065",
    "type": "restaurant"
  },
  {
    "name": "곰보식당",
    "district": "사상구",
    "lat": 35.196556,
    "lng": 128.98784,
    "address": "사상구 낙동대로 1564",
    "description": "1975년 개업하여 50여 년을 운영해온 한우전문점으로, 오랜 노하우로 항상 선별된 최상의 한우 암소만을 취급하고 있다. 부드러운 맛보다는 한우 본연의 고소한 맛을 살리는 것에 집중하고 있다.\n",
    "phone": "051-304-7733",
    "type": "restaurant"
  },
  {
    "name": "초필살돼지구이 해운대 본점",
    "district": "해운대구",
    "lat": 35.156647,
    "lng": 129.14693,
    "address": "해운대구 마린시티3로 23 \n벽산E오렌지프라자 A동 107호",
    "description": "친절한 직원들이 고기를 직접 구워준다. 유명한 맛집으로 언제나 웨이팅이 있다. 캐치테이블로 예약이 가능하다. 다양한 소스로 취향에 맞게 즐길 수 있다.\n",
    "phone": "0507-1417-5516",
    "type": "restaurant"
  },
  {
    "name": "밀양갈비",
    "district": "동구",
    "lat": 35.11918,
    "lng": 129.03975,
    "address": "동구 초량로 17-5",
    "description": "초량돼지갈비골목에서도 손꼽히는 식당으로 국내산 암퇘지만 사용한다. 양념갈비와 생갈비가 모두 준비되어 있으며 제공되는 모든 음식은 가게에서 직접 만든다.\n",
    "phone": "051-466-4546",
    "type": "restaurant"
  },
  {
    "name": "30년전통가마솥석쇠돼지갈비",
    "district": "해운대구",
    "lat": 35.1689,
    "lng": 129.17159,
    "address": "해운대구 좌동로14번길 60",
    "description": "국내산 돼지를 사용하여 초벌구이된 양념돼지갈비 단일메뉴로 30여 년을 운영해온 돼지갈비전문점으로 모든 음식을 직접 만든다. 식사를 주문하면 제공되는 찌개와 게조림이 기대 이상의 맛을 보여준다.\n",
    "phone": "0507-1305-6175",
    "type": "restaurant"
  },
  {
    "name": "해운대암소갈비집",
    "district": "해운대구",
    "lat": 35.163258,
    "lng": 129.16626,
    "address": "해운대구 해운대해변로333",
    "description": "1964년 창업하여 2대째 운영 중인 암소갈비전문점으로, 독특한 양념으로 방문해보지 않은 사람들도 이름정도는 알고 있는 유명한 식당이다.\n",
    "phone": "051-746-3333",
    "type": "restaurant"
  },
  {
    "name": "고기형",
    "district": "수영구",
    "lat": 35.166687,
    "lng": 129.11377,
    "address": "수영구 수영로679번길 22",
    "description": "고기에 진심인 주인이 신경 써서 선별한 한우를 숙성하여 당일 추천으로 먹을 수 있는 프리미엄 한우집. 경험하기 힘든 한우 우설과 한우 생차돌박이가 준비되어 있다.\n",
    "phone": "0507-1445-9312",
    "type": "restaurant"
  },
  {
    "name": "우봉샤브",
    "district": "해운대구",
    "lat": 35.1607,
    "lng": 129.19267,
    "address": "해운대구 청사포로 127",
    "description": "최상급(1++)한우만 사용하여 만든 프리미엄 샤브샤브로 특이하게도 종이냄비를 사용하여 조리한다. 나오는 음식과 눈에 보이는 모든 것이 정갈하고 깔끔한 곳이다.\n",
    "phone": "0507-1349-9256",
    "type": "restaurant"
  },
  {
    "name": "은하갈비",
    "district": "동구",
    "lat": 35.119347,
    "lng": 129.03961,
    "address": "부산광역시 동구 초량중로 86",
    "description": "돼지 갈비와 목살, 삼겹살을 먹을 수 있는 곳. 크고 화려하진 않지만, 반찬이나 고기가 맛있어서 항상 손님들로 가득 차 있다. 직접 만든 양념에 재운 돼지갈비가 가장 인기 있는 메뉴다.\n",
    "phone": "051-467-4303",
    "type": "restaurant"
  },
  {
    "name": "합천국밥집",
    "district": "남구",
    "lat": 35.111244,
    "lng": 129.11125,
    "address": "부산 남구 용호로 235 (용호동)",
    "description": "맑은 국물 스타일의 돼지국밥집. 돼지국밥을 시키면 돼지내장과 애기보 같은 고기를 국물에 토렴해서 내준다. \n모둠따로, 순대따로, 내장따로, 그냥 따로국밥 등 네 가지의 국밥 메뉴가 있다. 부산 스타일로 부추를 듬뿍 넣어서 먹으면 좋다.\n",
    "phone": "051-628-4898",
    "type": "restaurant"
  },
  {
    "name": "기장손칼국수",
    "district": "부산진구",
    "lat": 35.15551,
    "lng": 129.0583,
    "address": "부산 부산진구 서면로 56 (부전동)",
    "description": "멸치 육수에 쑥갓과 부추가 올라가는 경상도식 칼국수를 맛볼 수 있다. 깨와 다진 마늘도 들어가며 담백하면서도 깔끔한 국물 맛이 특징이다. \n면은 직접 반죽을 밀어서 만들고 깍두기가 유일한 밑반찬으로 나온다. \n소박하면서도 푸짐한 손맛이 느껴진다.\n",
    "phone": "051-806-6832",
    "type": "restaurant"
  },
  {
    "name": "쌍둥이돼지국밥",
    "district": "남구",
    "lat": 35.13177,
    "lng": 129.0923,
    "address": "부산 남구 유엔평화로 35-1 (대연동)",
    "description": "정을 거쳐서 내온다. 정구지라고 부르는 부추무침을 국물에 듬뿍 넣어 먹으면 좋다. 항정살로 만든 수육도 추천할 만하다.\n",
    "phone": "09:00~22:00",
    "type": "restaurant"
  },
  {
    "name": "삼오불고기",
    "district": "수영구",
    "lat": 35.160027,
    "lng": 129.1149,
    "address": "부산 수영구 수영로610번길 24-2 (광안동)",
    "description": "대패삼겹살과 돼지양념갈비 두 가지 메뉴만 선보이는 고깃집. \n고기와 어울리는 다양한 밑반찬이 나오며, 후식으로 식혜도 내준다. \n양념게장이 밑반찬으로 나와 인기가 좋다. 부담없는 가격으로 식사를 즐길 수 있는 곳이다.\n",
    "phone": "051-754-3610",
    "type": "restaurant"
  },
  {
    "name": "언양불고기부산집",
    "district": "수영구",
    "lat": 35.14793,
    "lng": 129.11354,
    "address": "부산 수영구 남천바다로 32 (남천동)",
    "description": "언양식 불고기를 전문으로 하는 곳. 질 좋은 소고기를 잘게 저며 언양 지방의 독특한 양념에 재워 두었다가 \n숯불 위에 석쇠로 구워 먹는 맛이 일품이다. 같이 나오는 백김치에 불고기를 싸 먹으면 좋다.\n",
    "phone": "051-754-1004",
    "type": "restaurant"
  },
  {
    "name": "은해갈치",
    "district": "수영구",
    "lat": 35.157005,
    "lng": 129.12592,
    "address": "부산 수영구 광안해변로295번길 4-7 (민락동)",
    "description": "부산에서 신선한 제주 갈치 요리를 먹을 수 있는 곳. 갈치구이를 특대로 주문하면 손바닥 만한 크기와 두께로 구워져 나오는데, 탱탱하면서도 부드러운 식감이 일품이다. \n슴슴하면서도 칼칼한 된장 베이스의 갈치찌개도 인기. \n3가지 젓갈과 함께 차려지는 밑반찬도 맛있고 정갈하다.\n",
    "phone": "051-925-2524",
    "type": "restaurant"
  },
  {
    "name": "동백섬횟집",
    "district": "해운대구",
    "lat": 35.160408,
    "lng": 129.15466,
    "address": "부산 해운대구 해운대해변로209번나길 17 (우동)",
    "description": "현지인이 손꼽는 자연산 횟집으로, 회가 싱싱하기로 유명하다. 회를 주문하면 여러 가지 해물과 튀김 등이 나온다. \n부산에서는 회를 주로 쌈장(된장)에 찍어 먹는 것이 특징이며, 초밥용 밥에 생선회를 얹어서 초밥을 만들어 먹을 수 있다. 식사로 매운탕과 생선찜이 나온다.\n",
    "phone": "051-741-3888",
    "type": "restaurant"
  },
  {
    "name": "새총횟집",
    "district": "해운대구",
    "lat": 35.205696,
    "lng": 129.12448,
    "address": "부산 해운대구 반여로155번길 25 (반여동)",
    "description": "고소한 지방 맛이 특징인 줄가자미(이시가리) 회를 맛볼 수 있는 곳이다. 자연산 회도 판매하여 도미, 가자미 등 \n다양한 고급 어종 회를 먹을 수 있다. 식사로 나오는 매운탕도 깊은 맛을 느낄 수 있다.\n",
    "phone": "0507-1314-8333",
    "type": "restaurant"
  },
  {
    "name": "초필살돼지구이",
    "district": "해운대구",
    "lat": 35.156647,
    "lng": 129.14693,
    "address": "부산 해운대구 마린시티3로 23 (우동)",
    "description": "해운대에서 인기 있는 돼지고기 구이 전문점. 쫄깃한 육질이 풍미가 좋으며 파채, 소스 등과 함께 먹으면 좋다. \n벌집 모양의 칼집을 낸 돼지껍데기가 시그니처 메뉴다. \n가격대비 만족도도 좋은 편.\n",
    "phone": "051-747-5571",
    "type": "restaurant"
  },
  {
    "name": "거대숯불구이",
    "district": "해운대구",
    "lat": 35.161602,
    "lng": 129.16695,
    "address": "부산 해운대구 달맞이길 22 (중동)",
    "description": "고급스러운 분위기에서 1++ 등급의 고급 한우를 즐길 수 있는 곳. 양념에 재서 숙성 과정을 거친 양념갈비가 대표 메뉴로, 갈빗살, 안심, 안창살 등 다양한 부위를 선보인다. \n기본으로 나오는 곁들이 음식도 전체적으로 맛이 좋으며 평양냉면으로 입가심하면 좋다.\n",
    "phone": "051-746-0037",
    "type": "restaurant"
  },
  {
    "name": "부다면옥",
    "district": "해운대구",
    "lat": 35.162384,
    "lng": 129.16298,
    "address": " 부산 해운대구 중동1로 36 (중동)",
    "description": "깔끔한 국물 맛이 일품인 평양냉면 전문점. 평소에는 평양냉면과 수육 2가지 메뉴만 선보이며,\n겨울에는 곰탕과 육개장도 맛볼 수 있다.\n",
    "phone": "051-746-8872",
    "type": "restaurant"
  },
  {
    "name": "아저씨대구탕",
    "district": "해운대구",
    "lat": 35.158676,
    "lng": 129.17163,
    "address": "부산 해운대구 달맞이길62번가길 31 (중동)",
    "description": "시원칼칼한 국물의 대구탕이 인기를 끄는 곳.\n대구 대가리를 넣어 국물 맛을 내는 것이 특징이다.\n밑반찬으로 나오는 장아찌 종류와 멍게젓이 맛깔스럽다. 허영만 화백을 비록하여 연예인 정우의 맛집이기도 하다.\n",
    "phone": "051-746-2847",
    "type": "restaurant"
  },
  {
    "name": "영남돼지",
    "district": "해운대구",
    "lat": 35.160004,
    "lng": 129.15541,
    "address": "부산 해운대구 해운대해변로209번가길 13 (우동)",
    "description": "질 좋은 소고기와 돼지고기 구이를 다양하게 먹을 수 있는 곳. \n고기를 먹기 좋은 굽기로 구워 주어 편하게 즐길 수 있다. 파채 무침, 멜젓도 나와 고기에 곁들이면 좋다. \n식사는 육향이 느껴지는 국물의 물냉면이 인기 메뉴다.\n",
    "phone": "051-747-4228",
    "type": "restaurant"
  },
  {
    "name": "무진장횟집",
    "district": "기장군",
    "lat": 35.216946,
    "lng": 129.22612,
    "address": "부산 기장군 기장읍 연화1길 137",
    "description": "오래된 아나고(붕장어) 전문점. 물기를 쫙 뺀 고슬고슬한 아나고회를 맛볼 수 있으며, 막장에 찍어 먹으면 일품이다. \n아나고회를 주문하면 나오는 얼큰한 매운탕의 맛도 좋다. 바다가 보이는 곳에 자리하고 있어 경치도 좋다.\n",
    "phone": "051-721-2956",
    "type": "restaurant"
  },
  {
    "name": "탐복",
    "district": "기장군",
    "lat": 35.28275,
    "lng": 129.25766,
    "address": "부산 기장군 일광읍 문오성길 31",
    "description": "고급스러운 분위기의 전복 전문점. 기본 세트를 주문하면 탐복밥, 탐복죽, 탐복구이가 함께 나온다.\n탐복밥의 고명은 미역, 톳, 곤드레 중에 고를 수 있으며 게우소스와 전복장으로 비벼 먹는다.\n",
    "phone": "051-727-4213",
    "type": "restaurant"
  },
  {
    "name": "미미루",
    "district": "동래구",
    "lat": 35.219494,
    "lng": 129.08295,
    "address": "부산 동래구 온천장로 91-1 (온천동)",
    "description": "부산에서 뜨거운 인기를 끌고 있는 중식당이다. 합리적인 가격에 훌륭한 중국 요리를 즐길 수 있다. \n특히 매콤한 향과 재료의 조화가 인상적인 사천라즈지가 대표 메뉴. \n모든 식사 메뉴에는 달걀프라이가 올라가는 것이 특징이다.\n",
    "phone": " 051-555-6609",
    "type": "restaurant"
  },
  {
    "name": "부우사안",
    "district": "해운대구",
    "lat": 35.160133,
    "lng": 129.1545,
    "address": "부산 해운대구 해운대해변로209번나길 16 (우동)",
    "description": "블랙톤으로 꾸민민 모던한 분위기의 중식당. 바삭한 껍질의 베이징덕이 시그니처 메뉴로, 전용 화덕을 갖추고 제대로 만들고 있다. \n베이징덕 외에도 우리에게 익숙한 다양한 중식 메뉴를 현대적인 터치를 가미해서 내고 있다. \n마의상수, 산니백육 등이 이 집의 독특한 메뉴.\n",
    "phone": "051-741-3310",
    "type": "restaurant"
  },
  {
    "name": "산동완탕교자관",
    "district": "동구",
    "lat": 35.119602,
    "lng": 129.04268,
    "address": "부산 동구 중앙대로248번길 3-11 (초량동)",
    "description": "부담없는 가격으로 완탕과 만두를 즐길 수 있는 곳으로, 중국 본토 맛을 느낄 수 있다. \n요리와 안주도 낮은 가격대에 판매하여 주류와 함께 즐기기 좋다. \n마파 두부와 가지 요리를 추천.\n",
    "phone": "070-8240-2385",
    "type": "restaurant"
  },
  {
    "name": "동경밥상",
    "district": "수영구",
    "lat": 35.148396,
    "lng": 129.11385,
    "address": "부산 수영구 남천바다로 34-6 (남천동)",
    "description": "장어 덮밥 전문집으로, 동경식 장어덮밥(우나쥬)과 나고야식 장어덮밥(히쓰마부시)을 맛볼 수 있는 것이 특징이다. \n히쓰마부시는 덮밥을 어느 정도 먹다가 나머지는 오차즈케로 만들어 먹는 것이 특징이다.\n",
    "phone": "070-7576-1428",
    "type": "restaurant"
  },
  {
    "name": "모즈",
    "district": "해운대구",
    "lat": 35.15704,
    "lng": 129.14333,
    "address": "부산 해운대구 마린시티2로 38 (우동)",
    "description": "오츠마미(술안주) 코스와 함께 술 한잔하기 좋은 곳. \n단품으로도 주문 가능하며 다양한 꼬치 요리와 일식 안주를 맛볼 수 있다. \n서울 신사동에서 인기를 끌고 있는 모즈의 요코모리 셰프가 오픈한 부산점이다.\n",
    "phone": "051-747-5048",
    "type": "restaurant"
  },
  {
    "name": "쇼진",
    "district": "해운대구",
    "lat": 35.163307,
    "lng": 129.1596,
    "address": "부산 해운대구 구남로 9 (우동)",
    "description": "일식 가이세키 코스 요리를 경험할 수 있는 곳. \n금태, 참치, 성게알, 단새우, 소고기 등 계절마다 바뀌는 제철 고급 식재료를 사용한다. \n사시미, 스이모노, 소바, 구이, 솥밥 등 다양한 요리를 조금씩 맛 볼 수 있다.\n",
    "phone": "0507-1354-8060",
    "type": "restaurant"
  },
  {
    "name": "스시시안",
    "district": "해운대구",
    "lat": 35.167847,
    "lng": 129.13097,
    "address": "부산 해운대구 센텀1로 9 (우동)",
    "description": "1인 셰프가 운영하는 스시 오마카세를 맛볼 수 있다. 저녁에만 1부, 2부로 나누어 디너 오마카세를 운영한다. \n샤리의 간이 약간 세다는 평도 있지만, 이를 선호해 찾는 이도 많으며, 전반적으로 가성비가 좋은 편이다.\n",
    "phone": "051-611-2684",
    "type": "restaurant"
  },
  {
    "name": "스시이루카",
    "district": "해운대구",
    "lat": 35.15704,
    "lng": 129.14333,
    "address": "부산 해운대구 마린시티2로 38 (우동)",
    "description": "가격 대비 만족스러운 스시 오마카세를 맛볼 수 있는 곳. \n적초를 사용한 샤리는 아지나 사바 같은 진한 맛의 생선과 잘 어울린다.\n",
    "phone": "0507-1361-9442",
    "type": "restaurant"
  },
  {
    "name": "야키토리해공",
    "district": "수영구",
    "lat": 35.158237,
    "lng": 129.12712,
    "address": "부산 수영구 민락본동로19번길 30-5 (민락동)",
    "description": "고급스러운 분위기의 야키토리 전문점으로, 토종닭을 사용한 야키토리 오마카세로 유명하다. \n안심, 목살, 굴살, 아킬레스건, 허벅지살, 날개, 다리, 껍질 등 닭의 거의 모든 부위를 맛볼 수 있다.\n",
    "phone": "0507-1479-8334",
    "type": "restaurant"
  },
  {
    "name": "제로베이스",
    "district": "수영구",
    "lat": 35.15741,
    "lng": 129.12096,
    "address": "부산 수영구 민락로33번길 17 (민락동)",
    "description": "단일 코스로만 진행되는 일식 오마카세를 맛볼 수 있다. \n생와사비, 북해도산 성게알 등 최상급 재료를 사용하여 재료 본연의 맛을 느낄 수 있다. \n다양한 종류의 사케와 도쿠리도 있어 코스와 페어링하기 좋다.\n",
    "phone": "0507-1300-0326",
    "type": "restaurant"
  },
  {
    "name": "떼떼오네",
    "district": "부산진구",
    "lat": 35.152622,
    "lng": 129.06642,
    "address": "부산 부산진구 동성로25번길 35 (전포동)",
    "description": "캐주얼하고 밝은 분위기의 와인 바. 프랑스식 육회인 비프 타르타르가 인기 메뉴로, 함께 나오는 바게트에 얹어 먹는다. \n런치에는 식사 메뉴로 파스타도 선보인다. 주류나 음료는 필수로 주문해야 한다.\n",
    "phone": "0507-1399-7911",
    "type": "restaurant"
  },
  {
    "name": "라꽁띠",
    "district": "해운대구",
    "lat": 35.162567,
    "lng": 129.18898,
    "address": "부산 해운대구 청사포로 85 (중동)",
    "description": "수준 높은 이탈리아 요리를 즐길 수 있는 곳. \n매일 매장에서 직접 만드는 파스타 면을 사용하는 것이 특징이며 참나무 화덕에 구운 피자와 스테이크 등도 추천한다. \n다양한 요리로 구성된 코스 메뉴도 만족도파가 높다.\n",
    "phone": "051-701-7890",
    "type": "restaurant"
  },
  {
    "name": "리오네",
    "district": "수영구",
    "lat": 35.171597,
    "lng": 129.12004,
    "address": "부산 수영구 구락로 36 (수영동)",
    "description": "뇨키가 맛있는 캐주얼 이탈리안 레스토랑. \n알감자 모양의 뇨키는 트러플의 풍미와 크림소스와 잘 어우러진다. \n입구 앞에 있는 자연친화적인 작은 정원이 이목을 끈다.\n",
    "phone": "051-753-0202",
    "type": "restaurant"
  },
  {
    "name": "쉐프리",
    "district": "해운대구",
    "lat": 35.159615,
    "lng": 129.15382,
    "address": "부산 해운대구 해운대해변로209번길 13 (우동)",
    "description": "기본에 충실한 이탈리안 레스토랑으로, 파스타가 인기 메뉴다. \n피자는 이탈리아 스타일로 화덕에 구워 내주며, 재료의 맛이 잘 느껴진다. \n평소 접하기 어려운 이탈리아 맥주도 맛볼 수 있다.\n",
    "phone": "051-757-6127",
    "type": "restaurant"
  },
  {
    "name": "음주양식당오스테리아어부",
    "district": "부산진구",
    "lat": 35.153934,
    "lng": 129.06258,
    "address": "부산 부산진구 동천로 58 (전포동)",
    "description": "이탈리아 현지의 맛을 살린 요리와 함께 와인을 즐기기 좋은 곳. \n제주산 딱새우와 링귀네면이 어우러진 파스타와 클래식카르보나라가 인기며 부드러운 송아지 종아리 살이 곁들여진 오소부코리조토도 추천할 만하다.\n",
    "phone": "051-802-8858",
    "type": "restaurant"
  },
  {
    "name": "이재모피자",
    "district": "중구",
    "lat": 35.1021,
    "lng": 129.03058,
    "address": "부산 중구 광복중앙로 31 (신창동1가)",
    "description": "부산 현지인들에게 유명한 피자 전문점으로, 피자에 들어가는 치즈가 맛있다는 평이다. \n페퍼로니 피자가 인기 메뉴며, 모든 피자는 4천원 추가 시 큰 사이즈로 변경 가능하다. \n대기할 것을 각오하고 가야 하는 곳이다.\n",
    "phone": "051-255-9494",
    "type": "restaurant"
  },
  {
    "name": "레땅",
    "district": "부산진구",
    "lat": 35.172516,
    "lng": 129.05516,
    "address": "부산 부산진구 성지로 22 (연지동)",
    "description": "프랑스와 일본에서의 경험을 담아 프렌치 코스를 선보이는 곳. \n제철 식자재를 사용하여 계절마다 코스 구성이 변동된다. \n내부는 카운터 테이블 구조로 되어 있으며, 1인 셰프로 운영되기 때문에 예약은 필수. \n에스카르고, 토끼고기 등 평소 접하기 힘든 프랑스 요리를 합리적인 가격에 경험할 수 있다. \n코스와 잘 어울리는 다양한 와인이 구비되어 있어 와인 한잔하기도 좋다.\n",
    "phone": "051-807-3636",
    "type": "restaurant"
  },
  {
    "name": "라이옥",
    "district": "남구",
    "lat": 35.138275,
    "lng": 129.10408,
    "address": "부산 남구 용소로7번길 76 (대연동)",
    "description": "베트남 하노이에 있는 쌀국수 식당 라이옥에서 전수 받은 쌀국숫집. \n깔끔한 국물의 소고기 쌀국수를 맛볼 수 있다. \n푸짐하게 나오는 반쎄오도 추천 메뉴. 현지 식당의 느낌을 재현한 인테리어도 인상적이다.\n",
    "phone": "0507-1449-8011",
    "type": "restaurant"
  },
  {
    "name": "달타이",
    "district": "해운대구",
    "lat": 35.158127,
    "lng": 129.18245,
    "address": "부산 해운대구 달맞이길 193 (중동)",
    "description": "뿌팟퐁커리와 똠양꿍이 인기 있는 태국 음식점이다. \n현지의 맛을 잘 재현한 태국 음식을 맛볼 수 있다. \n태국 맥주를 곁들이면 더욱 좋다. \n리뉴얼하여 실내 분위기도 모던하고 스타일리시해졌다\n",
    "phone": "0507-1403-1127",
    "type": "restaurant"
  },
  {
    "name": "알로이타이레스토랑",
    "district": "수영구",
    "lat": 35.16252,
    "lng": 129.12901,
    "address": "부산 수영구 민락수변로239번길 26 (민락동)",
    "description": "태국 정부가 인증한 타이셀렉트 프리미엄 인증점이다. \n현지 호텔 출신 요리사가 만드는 정통 태국 요리를 맛볼 수 있다. \n특히 게와 생크림을 넣어 만든 뿌팟퐁커리와 생파인애플을 푸짐하게 넣은 볶음밥 등이 인기다.\n",
    "phone": "051-756-0275",
    "type": "restaurant"
  },
  {
    "name": "카파도키아",
    "district": "금정구",
    "lat": 35.260086,
    "lng": 129.0922,
    "address": "부산 금정구 금단로 123-9 (남산동)",
    "description": "부산에서 보기 드문 튀르키예 음식 전문점으로, 케밥을 비롯한 다양한 정통 튀르키예 음식을 맛볼 수 있다. \n다양한 종류의 케밥이 인기 메뉴며 전통 향신료에 절인 양갈비를 그릴에 구운 피르졸라도 추천 메뉴다. \n귀화한 튀르키예인이 운영하고 있으며 가게 곳곳에 터키의 전통 공예품이 진열되어 있다.\n",
    "phone": "051-515-5981",
    "type": "restaurant"
  },
  {
    "name": "톤쇼우",
    "district": "수영구",
    "lat": 35.15644,
    "lng": 129.12479,
    "address": "부산 수영구 광안해변로279번길 13 (민락동)",
    "description": "일식 돈가스를 맛볼 수 있는 곳. 주문과 동시에 저온, 고온, 레스팅 순서로 조리가 진행되며 적절하게 잘 익은 핑크빛의 육즙을 자랑한다. \n영국 왕실 소금인 말돈 소금에 찍어 먹거나 특제소스에 겨자를 더해 먹으면 느끼함을 잡아준다.\n",
    "phone": "051-752-7978",
    "type": "restaurant"
  },
  {
    "name": "거북선횟집",
    "district": "해운대구",
    "lat": 35.156822,
    "lng": 129.17397,
    "address": "부산 해운대구 달맞이길62번길 69 (중동)",
    "description": "해운대 미포에 있는 횟집으로, 자연산 회의 맛이 뛰어나다. \n회 외에도 각종 밑반찬과 매운탕도 훌륭하다. \n직접 담근 고추장에 여러 양념을 섞어 6개월간 숙성시킨 초장이 맛의 비결이다. \n문재인 전대통령이 즐겨찾았던 대통령 맛집이다.\n",
    "phone": "051-741-8850",
    "type": "restaurant"
  },
  {
    "name": "고스락",
    "district": "기장군",
    "lat": 35.322273,
    "lng": 129.26978,
    "address": "부산 기장군 장안읍 해맞이로 286",
    "description": "바닷가에 전망이 좋은 방갈로로 되어 있는 곳이다. \n질좋은 소고기를 전망 좋은 방에서 즐길 수 있다. \n반려견 동반이 가능한 것이 특징. 식사 후 산책하기에도 좋다.\n",
    "phone": "051-727-0101",
    "type": "restaurant"
  },
  {
    "name": "규우정",
    "district": "해운대구",
    "lat": 35.15723,
    "lng": 129.17676,
    "address": "부산 해운대구 달맞이길 129 (중동)",
    "description": "창가 오션뷰 전망이 좋은 소고기 구이 전문점. \n고기를 주문하면 테이블에 기본 찬과 소금, 참기름, 데미글라스 세 가지 소스가 놓인다. \n숙성시킨 고기의 풍미가 좋으며, 데미글라스 소스를 곁들인 오므라이스도 단품 식사로 즐기기 좋다.\n",
    "phone": "051-747-9229",
    "type": "restaurant"
  },
  {
    "name": "금랑횟집",
    "district": "수영구",
    "lat": 35.15518,
    "lng": 129.13103,
    "address": "부산 수영구 광안해변로344번길 17-5 (민락동)",
    "description": "광안리 수변공원에 있어 광안대교를 바라보며 한상차림을 즐길 수 있는 곳. \n싱싱한 활어회와 함께 매운탕, 전복찜, 메로스테이크, 모둠해산물, 새우장을 비롯한 곁들이 음식이 푸짐하게 나온다. \n문재인 전대통령이 찾았던 대통령 맛집이다.\n",
    "phone": "051-752-5209",
    "type": "restaurant"
  },
  {
    "name": "뉼리",
    "district": "수영구",
    "lat": 35.155136,
    "lng": 129.12401,
    "address": "부산 수영구 민락수변로 7 (민락동)",
    "description": "광안리 바다가 보이는 전망 좋은 스테이크 하우스. \n알라카르트로 운영되며, 런치에는 세트를 시키면 샐러드, 파스타, 한우 스테이크, 디저트가 코스로 나온다. \n저녁때는 와인바로도 이용된다.\n",
    "phone": "010-5381-8102",
    "type": "restaurant"
  },
  {
    "name": "맥퀸즈라운지",
    "district": "기장군",
    "lat": 35.198193,
    "lng": 129.22858,
    "address": "부산 기장군 기장읍 기장해안로 268-32",
    "description": "힐튼부산호텔 내에 자리한 라운지. 환상적인 오션뷰를 바라보며 디저트와 차를 즐길 수 있는 공간이다. \n시그니처 메뉴는 케이크 등의 베이커리와 시그니처 티 컬렉션으로 구성된 애프터눈 티세트다.\n",
    "phone": "051-509-1371",
    "type": "restaurant"
  },
  {
    "name": "목장원",
    "district": "영도구",
    "lat": 35.07164,
    "lng": 129.05736,
    "address": "부산 영도구 절영로 355 (동삼동)",
    "description": "한우 및 수입육을 맛볼 수 있는 숯불갈비 전문점. 태종대의 절경을 바라보며 식사할 수 있다. \n2층 카페 드봄에서는 차 한잔의 여유를 즐길 수 있으며 연회장 및 야외 결혼식장도 함께 있다.\n",
    "phone": "051-404-5000",
    "type": "restaurant"
  },
  {
    "name": "오륙도가원",
    "district": "남구",
    "lat": 35.106842,
    "lng": 129.11136,
    "address": "부산 남구 백운포로 14 (용호동)",
    "description": "바다가 보이는 전망이 아주 좋은 한우 전문점. 질 좋은 한우를 숯불에 구워 먹는 맛이 좋다. \n점심시간에 한우구이를 주문하면 식사와 냉면이 무료로 제공된다. \n물이 흐르는 연못과 들판이 조화를 이루는 외관은 건축상을 수상했을 정도로 훌륭하다. \n옆에 카페가 있어 고기를 먹은 후 차를 마시기도 좋다.\n",
    "phone": "051-635-0707",
    "type": "restaurant"
  },
  {
    "name": "이레옥",
    "district": "해운대구",
    "lat": 35.154057,
    "lng": 129.14583,
    "address": "부산 해운대구 마린시티3로 51 (우동)",
    "description": "곰탕 전문점. 한우를 사용한 담백하고 깔끔한 맛의 곰탕을 즐길 수 있다. \n양이 들어간 양곰탕도 인기 메뉴. \n테라스에 앉으면 광안대교가 한눈에 보여 최고의 전망을 자랑한다.\n",
    "phone": "051-742-6421",
    "type": "restaurant"
  },
  {
    "name": "칠성횟집",
    "district": "수영구",
    "lat": 35.155697,
    "lng": 129.12259,
    "address": "부산 수영구 광안해변로 263 (민락동)",
    "description": "광안대교를 바라보면서 세꼬시를 즐길 수 있는 곳. 세꼬시를 찍어 먹는 쌈장이 이 집 맛의 비결이다. \n합리적인 가격에 질 좋은 세꼬시를 맛볼 수 있으며 뚝배기에 끓여 내오는 매운탕 맛도 일품이다.\n",
    "phone": "051-753-3704",
    "type": "restaurant"
  },
  {
    "name": "남풍",
    "district": "해운대구",
    "lat": 35.16022,
    "lng": 129.16527,
    "address": "부산 해운대구 해운대해변로 296 (중동)",
    "description": "오랜 기간 부산의 고급 중식당을 대표하고 있는 곳. \n정통 광동식 중식을 한국식으로 재해석해 선보인다. \n어자해삼, 광동식 송아지갈비요리, 불도장 등은 남풍만의 레시피로 만들어지는 시그니처 메뉴다. \n파라다이스호텔 신관 3층에 위치하며 바다가 보이는 전망도 훌륭하다.\n",
    "phone": "051-749-2260",
    "type": "restaurant"
  },
  {
    "name": "랩24바이쿠무다",
    "district": "해운대구",
    "lat": 35.177433,
    "lng": 129.19717,
    "address": "부산 해운대구 송정광어골로 41 (송정동)",
    "description": "에드워드권 셰프의 파인 다이닝 프렌치 레스토랑. \n탁트인 송정의 오션뷰를 볼 수 있으며, 고급스러운 분위기에서 섬세한 코스 요리를 합리적인 가격으로 즐길 수 있다. \n쿠무다라는 문화복합공간 4층에 자리 잡고 있다.\n",
    "phone": "051-701-1301",
    "type": "restaurant"
  },
  {
    "name": "르도헤",
    "district": "해운대구",
    "lat": 35.15545,
    "lng": 129.1466,
    "address": "부산광역시 해운대구 마린시티3로 37 (우동)",
    "description": "고급스러운 분위기의 모던한식 바로, 아름다운 야경을 보며 코스를 즐길 수 있다. \n문어, 장어, 방어 등 다양한 제철 해산물을 사용한 요리가 나온다. \n칵테일 바도 함께 운영하고 있어 늦은 시간에 칵테일 한잔하기에도 좋다\n",
    "phone": "0507-1438-8522",
    "type": "restaurant"
  },
  {
    "name": "마이클어반팜테이블",
    "district": "수영구",
    "lat": 35.176235,
    "lng": 129.11557,
    "address": "부산 수영구 구락로123번길 20 (망미동)",
    "description": "부산의 제철 식재료를 사용하여 미국식으로 풀어내는 아메리칸 레스토랑. \n파히타나 트러플스파게티, 마이클시그니처버거 등이 추천 메뉴. \n부산의 시티뷰 야경을 즐길 수 있는 야외 테라스 자리를 적극 추천한다. \n복합문화공간 F1963에 위치해 있다.\n",
    "phone": "051-602-8650",
    "type": "restaurant"
  },
  {
    "name": "모리",
    "district": "해운대구",
    "lat": 35.160202,
    "lng": 129.16658,
    "address": "부산 해운대구 해운대해변로298번길 24  (중동)",
    "description": "해운대 바다뷰를 즐기며 일식 가이세키를 경험할 수 있는 곳. \n인테리어와 직원의 유카타까지 일본 분위기를 물씬 느낄 수 있다. \n신선한 제철 해산물을 활용한 회부터 스이모노, 튀김, 구이, 솥밥 등 다양하게 맛본다. \n팔레드 시즈리조트 2층에 위치한다.\n",
    "phone": "0507-1349-9891",
    "type": "restaurant"
  },
  {
    "name": "무궁화",
    "district": "부산진구",
    "lat": 35.15679,
    "lng": 129.05641,
    "address": "부산 부산진구 가야대로 772 (부전동)",
    "description": "백양산을 바라보는 전경과 어우러진 기품있는 한식당으로 롯데호텔부산 43층에 위치한다. \n한국 정통 반가 음식을 새롭게 해석한 고급 한정식을 낸다. \n한국적인 맛에 현대적인 감각을 가미하여 내국인은 물론 외국인에게도 인기다. \n한식과 어울리는 와인 컬렉션을 갖추고 있으며 \n무슬림을 위한 할랄 메뉴도 준비되어 있다.\n",
    "phone": "051-810-6330",
    "type": "restaurant"
  },
  {
    "name": "사까에",
    "district": "해운대구",
    "lat": 35.16022,
    "lng": 129.16527,
    "address": "부산 해운대구 해운대해변로 296 (중동)",
    "description": "파라다이스호텔에 자리한 일식당. 신선한 재료를 활용한, 수준 높은 정통 일식의 진수를 맛볼 수 있다. \n스시 카운터도 인기 있으며, 식재료 본연의 맛을 최대한 살린 데판야키도 추천할 만하다.\n",
    "phone": "051-749-2248",
    "type": "restaurant"
  },
  {
    "name": "셔블",
    "district": "해운대구",
    "lat": 35.155994,
    "lng": 129.15404,
    "address": "부산 해운대구 동백로 67 (우동)",
    "description": "웨스틴조선부산호텔에 오랜 기간 운영되고 있는 한식당으로, 정성이 가득한 한국 전통 요리가 준비되어 있다. \n해운대 바다가 한눈에 보이는 연회실은 중요한 사람과의 모임 장소로 이용된다.\n",
    "phone": "051-749-7437",
    "type": "restaurant"
  },
  {
    "name": "아쁘앙",
    "district": "기장군",
    "lat": 35.200165,
    "lng": 129.2289,
    "address": "부산 기장군 기장읍 기장해안로 268-31",
    "description": "탁 트인 바다를 보며 코스 요리를 즐길 수 있는 곳. \n8가지 메뉴로 구성된 코스 메뉴를 선보이며, 프렌치에 한식을 가미한 요리를 맛볼 수 있다. \n메인인 스테이크 뒤에는 한식 반상이 나오는 것이 특징. \n코스에 포함된 생선 요리는 계절에 따라 바뀐다. 예약제로만 운영된다.\n",
    "phone": "051-604-7266",
    "type": "restaurant"
  },
  {
    "name": "아오모리",
    "district": "해운대구",
    "lat": 35.167812,
    "lng": 129.13281,
    "address": "부산 해운대구 센텀3로 20 (우동)",
    "description": "센텀호텔 내의 일식당으로 수준 높은 사시미를 맛볼 수 있다. \n코스를 시키면 사시미가 나온 후에 각종 해물이 나오고 채소와 관자, 소고기구이, 식사 메뉴가 뒤이어 나온다. \n스시코스도 인기 있으며 사케 리스트도 좋은 편이다.\n",
    "phone": "051-720-8201",
    "type": "restaurant"
  },
  {
    "name": "율링",
    "district": "해운대구",
    "lat": 35.158867,
    "lng": 129.1706,
    "address": "부산 해운대구 달맞이길62번길 28 (중동)",
    "description": "해운대의 멋진 오션뷰를 즐길 수 있는 한우 다이닝 레스토랑. \n고급스러운 공간에서 한식에 재패니즈 프렌치가 가미된 한우 오마카세를 즐길 수 있다. \n카운터 좌석과 여러 개의 개별 룸, 커다란 와인 셀러를 갖추고 있다.\n",
    "phone": "051-741-3323",
    "type": "restaurant"
  },
  {
    "name": "차오란",
    "district": "해운대구",
    "lat": 35.16133,
    "lng": 129.16801,
    "address": "부산 해운대구 달맞이길 30 (중동)",
    "description": "부산 시그니엘호텔의 중식 다이닝 레스토랑. 1920년대 홍콩의 분위기를 반영하였으며 모던 광동식 요리를 맛볼 수 있다. \n낮에는 딤섬과 차를, 저녁에는 바에서 칵테일을 즐길 수 있다.\n",
    "phone": "051-922-1250",
    "type": "restaurant"
  },
  {
    "name": "팔레드신",
    "district": "해운대구",
    "lat": 35.160065,
    "lng": 129.16313,
    "address": "부산 해운대구 해운대해변로 292 (중동)",
    "description": "오션뷰를 즐길 수 있는 그랜드조선부산호텔의 모던 차이니즈 레스토랑. \n시그니처는 단연 북경오리. 소흥주칠리새우, 훈연향메로도 인기 메뉴며, 불도장, 탕수육 등 웨스틴조선 홍연의 대표 메뉴도 맛볼 수 있다. \n북경오리는 최소 2일 전에 예약해야 한다.\n",
    "phone": "051-922-5100",
    "type": "restaurant"
  },
  {
    "name": "팔레트",
    "district": "남구",
    "lat": 35.131638,
    "lng": 129.11977,
    "address": "부산 남구 분포로 66-30 (용호동)",
    "description": "네오 비스트로를 표방하는 프렌치 레스토랑. 아뮈즈에서 시작해서 애피타이저, 메인 요리까지 고급 식재료를 사용한 아름답고 섬세한 플레이팅의 요리를 즐길 수 있다. \n처음에는 와인바로 시작한 곳으로, 와인 페어링을 추천한다.\n",
    "phone": "051-626-2364",
    "type": "restaurant"
  },
  {
    "name": "하레마",
    "district": "해운대구",
    "lat": 35.157204,
    "lng": 129.14482,
    "address": "부산 해운대구 마린시티2로 33 (우동)",
    "description": "신선한 고급 제철 재료를 사용하는 스시 오마카세. 디너코스는 10가지가 넘는 츠마미가 먼저 나온다. \n참치와 성게알, 아보카도 무스를 디올 접시에 서브한 뒤 김에 싸서 내주는 시그니처 요리를 맛볼 수 있다. \n시즈오카에서 공수해온 마즈마 와사비를 즉석에서 갈아 사용한다.\n",
    "phone": "0507-1354-6558",
    "type": "restaurant"
  },
  {
    "name": "60년전통할매국밥",
    "district": "동구",
    "lat": 35.141018,
    "lng": 129.05618,
    "address": "부산 동구 중앙대로533번길 4 (범일동)",
    "description": "부추를 넣어 먹는 부산식 돼지국밥이 유명하다. 국물 맛이 깔끔하며, 국밥에 부추를 듬뿍 넣어 맛을 더 잘 즐길 수 있다. \n수백은 수육백반을 말하는 것으로, 국밥과 함께 수육, 순대 등을 따로 내준다.\n",
    "phone": "051-646-6295",
    "type": "restaurant"
  },
  {
    "name": "개금밀면",
    "district": "부산진구",
    "lat": 35.152542,
    "lng": 129.02509,
    "address": "부산 부산진구 가야대로482번길 9-4 (개금동)",
    "description": "가야밀면과 함께 50년이 넘는 역사를 자랑하는 곳. \n밀가루에 고구마 전분을 섞어서 만든 면발의 쫄깃함이 특징이다. \n여름에는 줄을 서야 먹을 수 있다.\n",
    "phone": "051-892-3466",
    "type": "restaurant"
  },
  {
    "name": "구포촌국수",
    "district": "금정구",
    "lat": 35.26658,
    "lng": 129.08473,
    "address": "부산 금정구 금샘로 490 (남산동)",
    "description": "멸치 국수 한 가지만 전문으로 하는 곳. 국수를 주문하면 삶은 면이 나오는데, 양은주전자에 담긴 육수를 취향에 따라 부어 먹는다. \n육수는 남해안 멸치를 푹 끓여 만든다. 다진 청양고추를 듬뿍 넣어서 먹는 맛이 일품이다. 구포국수의 원조집이라 할 수 있다.\n",
    "phone": "051-515-1751",
    "type": "restaurant"
  },
  {
    "name": "금수복국",
    "district": "해운대구",
    "lat": 35.16242,
    "lng": 129.16449,
    "address": "부산광역시 해운대구 중동1로43번길 23 (중동)",
    "description": "해운대 일대에서 가장 오래된 복국집. 복국은 부산의 대표적인 속풀이 해장국으로, 맑은 지리복국 한 그릇이면 숙취가 말끔히 사라진다. \n얼큰한 복매운탕도 좋지만, 담백한 복어 맛을 제대로 보려면 지리를 권할 만하다. \n2층은 다양한 복코스를 즐길 수 있는 공간으로 운영된다.\n",
    "phone": "0507-1334-3600",
    "type": "restaurant"
  },
  {
    "name": "금용",
    "district": "북구",
    "lat": 35.205463,
    "lng": 128.99666,
    "address": "부산 북구 구포만세길 75 (구포동)",
    "description": "직접 빚은 옛날식 찐만두를 맛볼 수 있는 곳으로, 화교가 운영한다. \n만두는 미리 만들어놓지 않고 그날그날 새로 만들기 때문에 육즙이 살아 있다. \n군만두도 인기 메뉴며 식사로는 만두국밥을 추천할 만하다. \n50년 넘게 만두에만 집중해온 저력을 느낄 수 있다. \n군만두는 오전 10시 반 이후부터 먹을 수 있으니 방문 시 참고할 것.\n",
    "phone": "051-332-1261",
    "type": "restaurant"
  },
  {
    "name": "기장곰장어",
    "district": "기장군",
    "lat": 35.1853,
    "lng": 129.2114,
    "address": "부산 기장군 기장읍 기장해안로 70",
    "description": "짚불에 굽는 기장 곰장어구이의 원조. 짚불에서 적당히 구워진 곰장어의 새까맣게 탄 껍질을 벗기면 \n노릇노릇하게 익은 하얀 속살이 드러나는데, 먹기 좋게 잘라 소금이나 기름장에 찍어 먹는다. \n솔잎의 향긋함이 더해지는 생솔잎곰장어와 구수한 맛의 곰장어된장국 등도 맛볼 수 있다.\n",
    "phone": "051-721-2934",
    "type": "restaurant"
  },
  {
    "name": "동래할매파전",
    "district": "동래구",
    "lat": 35.204605,
    "lng": 129.08386,
    "address": "부산 동래구 명륜로94번길 43-10 (복천동)",
    "description": "80여 년에 걸쳐 4대째 이어오는 파전의 대명사인 곳이다. \n식사 대용으로도 좋은 두꺼운 파전은 해산물이 적당히 어우러져 깊은 맛을 낸다. \n대합, 새우, 굴, 홍합 등을 넣어 유채꽃 기름으로 부쳐내는 것이 특징. \n파전과 고동찜, 골뱅이무침, 더덕구이 등으로 구성된 한상차림 메뉴도 인기가 많다.\n",
    "phone": "051-552-0792",
    "type": "restaurant"
  },
  {
    "name": "물꽁식당",
    "district": "중구",
    "lat": 35.104496,
    "lng": 129.02438,
    "address": "부산 중구 흑교로59번길 3 (보수동2가)",
    "description": "60년 넘게 아귀찜만을 만들어 온 아귀 전문점이다. 싱싱한 생아귀만을 사용해 깔끔하면서도 뒷맛이 개운한 찜 요리를 선보이고 있다. \n아귀찜에는 경상도 지역에서 먹는 방앗잎이 들어가 향과 맛이 낯설 수 있다.\n",
    "phone": "051-257-3230",
    "type": "restaurant"
  },
  {
    "name": "박옥희할매집원조복국",
    "district": "해운대구",
    "lat": 35.158867,
    "lng": 129.1706,
    "address": "부산 해운대구 달맞이길62번길 28 (중동)",
    "description": "깔끔한 맛의 복국을 즐길 수 있는 곳. 복국은 고기를 알맞게 넣고 육수를 잘 빼는 것이 중요한데, 알맞은 농도의 육수를 사용하여 상당한 맛을 자랑한다. \n규모는 작아도 점심때면 줄을 서서 기다릴 정도로 인기가 많다.\n",
    "phone": "051-747-7625",
    "type": "restaurant"
  },
  {
    "name": "배종관동래삼계탕",
    "district": "동래구",
    "lat": 35.20526,
    "lng": 129.08475,
    "address": "부산 동래구 동래로116번길 39 (복천동)",
    "description": "삼계탕만을 전문으로 해온 곳으로, 메뉴는 궁중약계탕과 동래삼계탕 두 가지뿐이다. \n큼지막한 닭을 사용하며 진한 국물이 일품이다. 삼계탕이 나오기 전에 인삼주를 한 잔 내주며 삼계탕에는 파채가 올라가는 것이 특징이다. \n대기하는 손님이 많아 보통은 줄을 서서 기다려야 한다.\n",
    "phone": "051-555-2464",
    "type": "restaurant"
  },
  {
    "name": "백구당",
    "district": "중구",
    "lat": 35.10482,
    "lng": 129.03575,
    "address": "부산 중구 중앙대로81번길 3 (중앙동4가)",
    "description": "부산에서 오래된 빵집으로, 60년 넘는 역사를 자랑한다. 부드러운 빵에 콘샐러드가 들어간 크로이즌이 인기 있다. \n세련되지는 않으나 예스러운 맛의 빵이 많으며 향수를 느끼는 사람들이 많이 찾는다.\n",
    "phone": "051-465-0109",
    "type": "restaurant"
  },
  {
    "name": "부산명물횟집",
    "district": "중구",
    "lat": 35.097115,
    "lng": 129.03111,
    "address": "부산 중구 자갈치해안로 55 (남포동4가)",
    "description": "자갈치시장 내에 있는 80여 년 전통의 회백반집. \n푸짐하게 나오는 큼직큼직한 생선살과 초장, 반찬이 구미를 당긴다. \n회백반에는 광어회 한 접시와 밥, 맑은 생선국, 대 여섯 가지의 밑반찬이 나온다. 제철에 따라 창자젓, 볼락 어젓, 게장 등이 상에 오른다. \n윤석열 대통령이 즐겨 찾는 대통령 맛집이다.\n",
    "phone": "0507-1338-7617",
    "type": "restaurant"
  },
  {
    "name": "비엔씨",
    "district": "중구",
    "lat": 35.09972,
    "lng": 129.02959,
    "address": "부산광역시 중구 광복로39번길 6 (창선동)",
    "description": "부산에서 오래된 빵집으로, 40여 년의 역사를 자랑한다. \n감자가 들어간 사라다빵과 파이만주가 인기 메뉴. \n예스러운 빵뿐만 아니라 몽블랑, 에그타르트 등도 선보인다.\n",
    "phone": "051-260-5201",
    "type": "restaurant"
  },
  {
    "name": "새진주식당",
    "district": "중구",
    "lat": 35.104774,
    "lng": 129.0249,
    "address": "부산광역시 중구 흑교로 60 (보수동1가)",
    "description": "70여 년 역사의 진주식 육회비빔밥집. 각종 채소와 육회가 골고루 버무려져 나온다. \n비빔밥을 시키면 나오는 선짓국과 물김치가 별미다. \n이 외에 석쇠불고기, 파전, 가오리무침 등의 메뉴도 맛볼 수 있다.\n",
    "phone": "051-256-9110",
    "type": "restaurant"
  },
  {
    "name": "서울깍두기",
    "district": "중구",
    "lat": 35.104774,
    "lng": 129.0249,
    "address": "부산 중구 남포길 33 (남포동2가)",
    "description": "80여 년 동안 설렁탕을 만들고 있는 곳. 설렁탕은 보통 서울에서 많이 먹는 음식이지만, 부산 사람의 입맛까지 사로잡았다. \n반찬은 배추김치와 깍두기 두 가지뿐이지만 그 맛이 일품이다.\n",
    "phone": "051-245-3950",
    "type": "restaurant"
  },
  {
    "name": "송정3대국밥",
    "district": "부산진구",
    "lat": 35.155567,
    "lng": 129.05853,
    "address": "부산 부산진구 서면로68번길 33 (부전동)",
    "description": "돼지의 좋은 부위를 사용한 돼지국밥의 국물이 뽀얗고 깔끔하다. \n당면 대신 찹쌀을 넣어서 만드는 찹쌀순대도 인기가 좋다. \n서면의 돼지국밥 골목의 원조집 중 하나로, 80여 년의 역사를 자랑한다.\n",
    "phone": "051-806-5722",
    "type": "restaurant"
  },
  {
    "name": "신발원",
    "district": "동구",
    "lat": 35.11481,
    "lng": 129.03871,
    "address": "부산 동구 대영로243번길 62 (초량동)",
    "description": "두꺼우면서도 부드러운 만두피와 생강과 돼지고기를 넣은 속이 조화를 이루는 중국만두로 유명하다. \n중국만두 외에도 팥빵, 달걀빵 등 중국빵을 전문으로 한다. \n중국 사람들이 아침에 즐겨 찾는 콩국은 과자와 함께 나온다. \n70년이 넘는 역사를 자랑하는 곳.\n",
    "phone": "051-467-0177",
    "type": "restaurant"
  },
  {
    "name": "신창국밥",
    "district": "중구",
    "lat": 35.101936,
    "lng": 129.02934,
    "address": "부산 중구 광복로39번길 30-1  (신창동2가)",
    "description": "개운하고 구수한 맛이 일품인 돼지국밥을 맛볼 수 있는 곳이다. \n잘 삶아진 수육과 순대 등이 푸짐하게 들어가 있다. \n남포동 국제시장 내에 있으며, 맛있기로 입소문이 나 부산을 찾는 관광객들도 많이 찾는다.\n",
    "phone": "051-254-5074",
    "type": "restaurant"
  },
  {
    "name": "신흥관",
    "district": "해운대구",
    "lat": 35.16279,
    "lng": 129.16302,
    "address": "부산 해운대구 중동1로 31-1 (중동)",
    "description": "70여 년 전통의 사천 중화요리 전문점. 불 맛이 느껴지는 사천소스를 곁들인 짜장면과 오이, 당근, 목이버섯 등 이 큼지막하게 들어간 옛날식 탕수육이 인기 메뉴다. \n그 외에도 깐풍기의 맛도 일품.\n",
    "phone": "051-746-0062",
    "type": "restaurant"
  },
  {
    "name": "옛날오막집",
    "district": "서구",
    "lat": 35.10883,
    "lng": 129.0197,
    "address": "부산 서구 구덕로274번길 14 (동대신동1가)",
    "description": "60년 넘는 전통의 양곱창 전문점. 한우의 양과 곱창을 집에서 직접 짠 참기름과 양념장에 재워 숯불에 굽는다. \n양과 대창, 곱창의 질이 좋고 양념 맛도 잘 어우러진다. 양념장은 고춧가루와 물엿을 섞어서 진하게 만든 경상도 스타일이다. 양볶음밥도 별미.\n",
    "phone": "051-243-6973",
    "type": "restaurant"
  },
  {
    "name": "원조할매낙지",
    "district": "부산진구",
    "lat": 35.14214,
    "lng": 129.06015,
    "address": "부산 부산진구 골드테마길 10 (범천동)",
    "description": "50년 넘는 전통의 낙지볶음집. 낙지볶음이지만, 국물이 있어 전골에 더 가깝다. \n소곱창이 함께 들어간 메뉴도 추천할 만하며, 낙지볶음을 밥에 비벼 먹거나 우동 사리를 추가해서 끓여 먹어도 좋다.\n",
    "phone": "051-643-5037",
    "type": "restaurant"
  },
  {
    "name": "초원복국",
    "district": "남구",
    "lat": 35.13777,
    "lng": 129.1059,
    "address": "부산 남구 황령대로492번길 30 (대연동)",
    "description": "복요리로 유명한 곳으로 60여 년간 2대째 내려오고 있다. \n복지리, 복매운탕 등 다양한 복요리를 맛볼 수 있으며 원하는 복 종류를 선택할 수 있다. 복코스를 주문하면 복샤부샤부, 복튀김, 복초회, 복죽 등 다양한 복요리가 나온다. \n부산 곳곳에 지점을 두고 있을 만큼 인기 있는 곳이다.\n",
    "phone": "051-628-3935",
    "type": "restaurant"
  },
  {
    "name": "평산옥",
    "district": "동구",
    "lat": 35.11429,
    "lng": 129.0371,
    "address": "부산 동구 초량중로 26 (초량동)",
    "description": "100년이 넘는 전통을 자랑하는 돼지수육 전문점. 수육이 1인분씩 나오며 양도 넉넉한 편이다. \n식사로 나오는 돼지 사골국수는 무난히 먹기 좋다. 수육은 포장도 가능하다.\n",
    "phone": "051-468-6255",
    "type": "restaurant"
  },
  {
    "name": "할매재첩국",
    "district": "사상구",
    "lat": 35.193363,
    "lng": 128.98607,
    "address": "부산 사상구 낙동대로1530번길 20-15 (삼락동)",
    "description": "삼락동 재첩골목의 원조집. 재첩국을 시키면 재첩국과 밥, 비빔양념 그릇, 고등어조림, 깍두기, 김치, 된장찌개를 갖다 준다. \n재첩을 넣고 양념과 함께 비빈 밥과 시원한 국물이 어우러진 맛이 일품이다. \n가마솥에 밥을 짓는 것이 밥맛의 비결이라고 한다.\n",
    "phone": "051-301-5321",
    "type": "restaurant"
  },
  {
    "name": "해운대소문난암소갈비집",
    "district": "해운대구",
    "lat": 35.163235,
    "lng": 129.16628,
    "address": "부산 해운대구 중동2로10번길 32-10 (중동)",
    "description": "해운대식 갈비의 원조로 꼽히는 곳. 1964년 창업한 이래로 꾸준히 그 명성을 이어오고 있다. \n전골판 같이 생긴 불판에 고기를 구워 먹은 후, 감자로 만든 면사리를 추가해 전골처럼 즐길 수도 있다. \n한옥으로 된 건물이라 옛날 양반집에서 대접받는 듯한 느낌이 든다. \n많은 유명인들이 단골집으로 꼽는 곳이다.\n",
    "phone": "051-746-0033",
    "type": "restaurant"
  },
  {
    "name": "레망파티쓰리",
    "district": "동래구",
    "lat": 35.192314,
    "lng": 129.10294,
    "address": "부산 동래구 온천천로471번가길 38 (안락동)",
    "description": "마들렌, 피낭시에 등 정통 프랑스식 구움과자를 전문으로 하는 곳. \n초콜릿이 가득 찬 쇼콜라타르트, 밀푀유 등이 인기 메뉴. 딸기밀푀유, 밤마들렌 같은 시즌 메뉴도 있다.\n",
    "phone": "010-4140-3723",
    "type": "restaurant"
  },
  {
    "name": "머그디저트랩",
    "district": "해운대구",
    "lat": 35.15704,
    "lng": 129.14333,
    "address": "부산 해운대구 마린시티2로 38 (우동)",
    "description": "고급스러운 플레이팅의 디저트를 맛볼 수 있는 곳이다. \n연보라색의 라벤더 무스를 올린 비올렛이 인기메뉴로, 라즈베리 잼과 타르트지가 잘 조화된다.\n",
    "phone": "070-4099-8074",
    "type": "restaurant"
  },
  {
    "name": "무슈뱅상",
    "district": "수영구",
    "lat": 35.146374,
    "lng": 129.11293,
    "address": "부산 수영구 광남로48번길 19 (남천동)",
    "description": "밀가루, 소금, 버터, 초콜릿 등 프랑스산 재료를 사용하는 프랑스식 베이커리 카페. \n막대기 모양의 바통이 인기있는 빵으로, 1인당 5개만 구매할 수 있다.\n",
    "phone": "051-625-1125",
    "type": "restaurant"
  },
  {
    "name": "보느파티쓰 리",
    "district": "연제구",
    "lat": 35.195267,
    "lng": 35.195267,
    "address": "부산 연제구 교대로 7 (거제동)",
    "description": "달콤한 빵, 구움과자, 케이크를 전문으로 하는 디저트 카페. \n디저트와 즐길 수 있는 차도 다양한 종류를 선보인다. \n몽블랑, 포레블랑쉬 등이 인기 메뉴.\n",
    "phone": "051-502-2451",
    "type": "restaurant"
  },
  {
    "name": "브레드365",
    "district": "남구",
    "lat": 35.135815,
    "lng": 129.08633,
    "address": "부산 남구 못골로41번길 13 (대연동)",
    "description": "다양한 종류의 베이커리를 선보이는 빵집. \n여러가지 종류의 바게트가 인기 메뉴다. 페이스트리 결이 잘 느껴지는 크루아상과 담백한 식빵도 맛있다.\n",
    "phone": "051-711-1951",
    "type": "restaurant"
  },
  {
    "name": "브리앙",
    "district": "동래구",
    "lat": 35.221756,
    "lng": 129.08356,
    "address": "부산 동래구 온천장로119번길 26 (온천동)",
    "description": "프랑스 지역의 대표적인 향토 과자를 선보이는 구움과자 전문점. \n예약 주문 위주로 운영되고 제품 소진이 빠르기 때문에 하루 전에 예약 해야 한다.\n",
    "phone": "010-8549-5709",
    "type": "restaurant"
  },
  {
    "name": "옵스",
    "district": "수영구",
    "lat": 35.139668,
    "lng": 129.10875,
    "address": "부산 수영구 황령대로489번길 37 (남천동)",
    "description": "부산에서 입소문난 빵집 중 한 곳으로, 느끼하지 않고 부드러운 왕슈크림빵이 맛있기로 유명하다. \n꾸준한 인기를 끌고 있는 슈크림빵은 금방 품절 될 수 있어 서둘러야 한다.\n",
    "phone": "051-625-4300",
    "type": "restaurant"
  },
  {
    "name": "모모스커피",
    "district": "금정구",
    "lat": 35.219234,
    "lng": 129.08647,
    "address": "부산 금정구 오시게로 20 (부곡동)",
    "description": "2007년 온천장역 주변에 4평짜리 테이크아웃 매장으로 시작하였다. \n창립 멤버 전주연 바리스타가 한국 최초로 2연패한 세계 바리스타 챔피언이다. \n오래된 적산가옥 풍의 매장이 아름답고, 최근 영도에 로스터리 겸 2호점 매장을 커다란 규모로 오픈했다. \n대표적인 커피는 에스쇼콜라와 프루티봉봉 블렌딩. 파나마의 새비지 옥션과 같은 커피들을 한국 최초로 선보였다.\n",
    "phone": "051-512-0700",
    "type": "restaurant"
  },
  {
    "name": "베르크로스터스",
    "district": "부산진구",
    "lat": 35.152615,
    "lng": 129.06628,
    "address": "부산 부산진구 서전로58번길 115 (전포동)",
    "description": "히떼와 함께 부산의 새로운 스페셜티 커피 물결 최전선에 있는 매장이다. \n커피 로스팅, 매장운영, 기획, 행사, 창의적인 활동 등으로 부산뿐만 아니라 전국적으로도 인기가 많다. \n수도원 느낌의 초반 매장은 전국에 수많은 모방 매장이 생길 만큼 인기가 많았지만, 리노베이션후, 커피 자체에 집중하는 분위기가 되었다.\n",
    "phone": "051-817-2111",
    "type": "restaurant"
  },
  {
    "name": "블랙업커피",
    "district": "부산진구",
    "lat": 35.156055,
    "lng": 129.05998,
    "address": "부산 부산진구 서전로10번길 41 (부전동)",
    "description": "모모스와 함께 부산을 상징하는 스페셜티 커피 기업이다. 부산, 울산, 경남 지역에 8개의 대형 매장을 운영하고 있다. \n가장 대표적인 곳은 서면의 블랙업 커피 1호점, 부산 서면 카페 거리의 원조다. 대표적인 커피는 10년 넘게 꾸준히 유지하는 블렌딩 네로. \n소량의 소금과 콜드브루커피 생크림이 첨가된 해수염 창작 메뉴도 인기가 많다.\n",
    "phone": "051-944-4952",
    "type": "restaurant"
  },
  {
    "name": "히떼로스터리",
    "district": "부산진구",
    "lat": 35.155754,
    "lng": 129.0682,
    "address": "부산 부산진구 동성로 59 (전포동)",
    "description": "전포동의 새롭게 떠오르는 스페셜티커피. 수영 지역에서 시작을 했다가, 최근 전포동으로 매장을 이전했다. \n메쉬, 딥블루레이크와 함께 한국을 상징하는 라이트로스팅 커피 매장. \n과일향과 꽃향이 선명한 개성있는 생두를 기준으로 로스팅을 작업하면서 매혹적인 밸런스와 단맛이 좋은 커피까지 잘 발현한다.\n",
    "phone": "070-7607-7060",
    "type": "restaurant"
  }
]